[
  {
    "id": 1,
    "latitude": -8.665356,
    "longitude": 115.146164,
    "price_per_night": 295,
    "bedrooms": 2,
    "occupancy_rate": 0.58,
    "monthly_revenue": 5133,
    "title": "Rumah Lotus 2BR — Canggu",
    "zone": "Canggu"
  },
  {
    "id": 2,
    "latitude": -8.634404,
    "longitude": 115.129997,
    "price_per_night": 315,
    "bedrooms": 4,
    "occupancy_rate": 0.71,
    "monthly_revenue": 6709,
    "title": "Villa Lotus 4BR — Pererenan",
    "zone": "Pererenan"
  },
  {
    "id": 3,
    "latitude": -8.633316,
    "longitude": 115.130505,
    "price_per_night": 155,
    "bedrooms": 1,
    "occupancy_rate": 0.65,
    "monthly_revenue": 3023,
    "title": "Joglo Breeze 1BR — Pererenan",
    "zone": "Pererenan"
  },
  {
    "id": 4,
    "latitude": -8.664062,
    "longitude": 115.131214,
    "price_per_night": 205,
    "bedrooms": 1,
    "occupancy_rate": 0.78,
    "monthly_revenue": 4797,
    "title": "Omah Frangipani 1BR — Batu Bolong",
    "zone": "Batu Bolong"
  },
  {
    "id": 5,
    "latitude": -8.649715,
    "longitude": 115.175475,
    "price_per_night": 495,
    "bedrooms": 4,
    "occupancy_rate": 0.64,
    "monthly_revenue": 9504,
    "title": "Villa Coconut 4BR — Berawa",
    "zone": "Berawa"
  },
  {
    "id": 6,
    "latitude": -8.644937,
    "longitude": 115.146624,
    "price_per_night": 360,
    "bedrooms": 5,
    "occupancy_rate": 0.61,
    "monthly_revenue": 6588,
    "title": "Casa Serenity 5BR — Canggu",
    "zone": "Canggu"
  },
  {
    "id": 7,
    "latitude": -8.641514,
    "longitude": 115.156765,
    "price_per_night": 410,
    "bedrooms": 1,
    "occupancy_rate": 0.69,
    "monthly_revenue": 8487,
    "title": "The Ricefield 1BR — Canggu",
    "zone": "Canggu"
  },
  {
    "id": 8,
    "latitude": -8.656911,
    "longitude": 115.134215,
    "price_per_night": 280,
    "bedrooms": 5,
    "occupancy_rate": 0.74,
    "monthly_revenue": 6216,
    "title": "The Lotus 5BR — Pererenan",
    "zone": "Pererenan"
  },
  {
    "id": 9,
    "latitude": -8.660694,
    "longitude": 115.146915,
    "price_per_night": 370,
    "bedrooms": 4,
    "occupancy_rate": 0.61,
    "monthly_revenue": 6771,
    "title": "Casa Frangipani 4BR — Canggu",
    "zone": "Canggu"
  },
  {
    "id": 10,
    "latitude": -8.660148,
    "longitude": 115.14679,
    "price_per_night": 195,
    "bedrooms": 3,
    "occupancy_rate": 0.62,
    "monthly_revenue": 3627,
    "title": "Rumah Frangipani 3BR — Batu Bolong",
    "zone": "Batu Bolong"
  },
  {
    "id": 11,
    "latitude": -8.648095,
    "longitude": 115.166199,
    "price_per_night": 140,
    "bedrooms": 1,
    "occupancy_rate": 0.79,
    "monthly_revenue": 3318,
    "title": "Joglo Bloom 1BR — Berawa",
    "zone": "Berawa"
  },
  {
    "id": 12,
    "latitude": -8.659505,
    "longitude": 115.143717,
    "price_per_night": 480,
    "bedrooms": 5,
    "occupancy_rate": 0.59,
    "monthly_revenue": 8496,
    "title": "The Azure 5BR — Canggu",
    "zone": "Canggu"
  },
  {
    "id": 13,
    "latitude": -8.671602,
    "longitude": 115.173383,
    "price_per_night": 280,
    "bedrooms": 2,
    "occupancy_rate": 0.63,
    "monthly_revenue": 5292,
    "title": "Puri Lush 2BR — Berawa",
    "zone": "Berawa"
  },
  {
    "id": 14,
    "latitude": -8.66458,
    "longitude": 115.164534,
    "price_per_night": 440,
    "bedrooms": 3,
    "occupancy_rate": 0.6,
    "monthly_revenue": 7920,
    "title": "Joglo Verdant 3BR — Berawa",
    "zone": "Berawa"
  },
  {
    "id": 15,
    "latitude": -8.659239,
    "longitude": 115.127552,
    "price_per_night": 220,
    "bedrooms": 3,
    "occupancy_rate": 0.8,
    "monthly_revenue": 5280,
    "title": "Joglo Lush 3BR — Pererenan",
    "zone": "Pererenan"
  },
  {
    "id": 16,
    "latitude": -8.651079,
    "longitude": 115.149192,
    "price_per_night": 250,
    "bedrooms": 1,
    "occupancy_rate": 0.69,
    "monthly_revenue": 5175,
    "title": "Omah Indigo 1BR — Canggu",
    "zone": "Canggu"
  },
  {
    "id": 17,
    "latitude": -8.662296,
    "longitude": 115.173288,
    "price_per_night": 345,
    "bedrooms": 4,
    "occupancy_rate": 0.62,
    "monthly_revenue": 6417,
    "title": "Omah Azure 4BR — Berawa",
    "zone": "Berawa"
  },
  {
    "id": 18,
    "latitude": -8.659566,
    "longitude": 115.148082,
    "price_per_night": 315,
    "bedrooms": 4,
    "occupancy_rate": 0.8,
    "monthly_revenue": 7560,
    "title": "Joglo Jasmine 4BR — Batu Bolong",
    "zone": "Batu Bolong"
  },
  {
    "id": 19,
    "latitude": -8.651692,
    "longitude": 115.147244,
    "price_per_night": 410,
    "bedrooms": 2,
    "occupancy_rate": 0.56,
    "monthly_revenue": 6888,
    "title": "Joglo Paradise 2BR — Canggu",
    "zone": "Canggu"
  },
  {
    "id": 20,
    "latitude": -8.653733,
    "longitude": 115.153011,
    "price_per_night": 345,
    "bedrooms": 3,
    "occupancy_rate": 0.58,
    "monthly_revenue": 6003,
    "title": "Villa Lotus 3BR — Berawa",
    "zone": "Berawa"
  },
  {
    "id": 21,
    "latitude": -8.651183,
    "longitude": 115.142043,
    "price_per_night": 425,
    "bedrooms": 5,
    "occupancy_rate": 0.69,
    "monthly_revenue": 8798,
    "title": "The Lush 5BR — Canggu",
    "zone": "Canggu"
  },
  {
    "id": 22,
    "latitude": -8.633536,
    "longitude": 115.130551,
    "price_per_night": 295,
    "bedrooms": 4,
    "occupancy_rate": 0.71,
    "monthly_revenue": 6284,
    "title": "Casa Lotus 4BR — Pererenan",
    "zone": "Pererenan"
  },
  {
    "id": 23,
    "latitude": -8.657729,
    "longitude": 115.142357,
    "price_per_night": 405,
    "bedrooms": 4,
    "occupancy_rate": 0.75,
    "monthly_revenue": 9113,
    "title": "The Frangipani 4BR — Canggu",
    "zone": "Canggu"
  },
  {
    "id": 24,
    "latitude": -8.646083,
    "longitude": 115.144649,
    "price_per_night": 420,
    "bedrooms": 4,
    "occupancy_rate": 0.62,
    "monthly_revenue": 7812,
    "title": "Omah Indigo 4BR — Canggu",
    "zone": "Canggu"
  },
  {
    "id": 25,
    "latitude": -8.669247,
    "longitude": 115.141766,
    "price_per_night": 315,
    "bedrooms": 3,
    "occupancy_rate": 0.57,
    "monthly_revenue": 5386,
    "title": "Rumah Harmony 3BR — Batu Bolong",
    "zone": "Batu Bolong"
  },
  {
    "id": 26,
    "latitude": -8.656403,
    "longitude": 115.157268,
    "price_per_night": 395,
    "bedrooms": 4,
    "occupancy_rate": 0.58,
    "monthly_revenue": 6873,
    "title": "Rumah Saffron 4BR — Canggu",
    "zone": "Canggu"
  },
  {
    "id": 27,
    "latitude": -8.663395,
    "longitude": 115.15286,
    "price_per_night": 445,
    "bedrooms": 5,
    "occupancy_rate": 0.58,
    "monthly_revenue": 7743,
    "title": "Casa Bloom 5BR — Canggu",
    "zone": "Canggu"
  },
  {
    "id": 28,
    "latitude": -8.657423,
    "longitude": 115.131828,
    "price_per_night": 405,
    "bedrooms": 4,
    "occupancy_rate": 0.7,
    "monthly_revenue": 8505,
    "title": "Puri Oasis 4BR — Batu Bolong",
    "zone": "Batu Bolong"
  },
  {
    "id": 29,
    "latitude": -8.664428,
    "longitude": 115.14567,
    "price_per_night": 235,
    "bedrooms": 2,
    "occupancy_rate": 0.72,
    "monthly_revenue": 5076,
    "title": "Casa Coconut 2BR — Batu Bolong",
    "zone": "Batu Bolong"
  },
  {
    "id": 30,
    "latitude": -8.644193,
    "longitude": 115.149184,
    "price_per_night": 250,
    "bedrooms": 2,
    "occupancy_rate": 0.6,
    "monthly_revenue": 4500,
    "title": "Omah Indigo 2BR — Canggu",
    "zone": "Canggu"
  },
  {
    "id": 31,
    "latitude": -8.668049,
    "longitude": 115.155474,
    "price_per_night": 305,
    "bedrooms": 5,
    "occupancy_rate": 0.67,
    "monthly_revenue": 6131,
    "title": "Puri Tropical 5BR — Berawa",
    "zone": "Berawa"
  },
  {
    "id": 32,
    "latitude": -8.661047,
    "longitude": 115.156902,
    "price_per_night": 255,
    "bedrooms": 4,
    "occupancy_rate": 0.78,
    "monthly_revenue": 5967,
    "title": "Casa Ricefield 4BR — Canggu",
    "zone": "Canggu"
  },
  {
    "id": 33,
    "latitude": -8.635864,
    "longitude": 115.129624,
    "price_per_night": 190,
    "bedrooms": 1,
    "occupancy_rate": 0.69,
    "monthly_revenue": 3933,
    "title": "Joglo Serenity 1BR — Pererenan",
    "zone": "Pererenan"
  },
  {
    "id": 34,
    "latitude": -8.645926,
    "longitude": 115.137758,
    "price_per_night": 445,
    "bedrooms": 2,
    "occupancy_rate": 0.71,
    "monthly_revenue": 9479,
    "title": "Villa Breeze 2BR — Canggu",
    "zone": "Canggu"
  },
  {
    "id": 35,
    "latitude": -8.645889,
    "longitude": 115.134965,
    "price_per_night": 485,
    "bedrooms": 2,
    "occupancy_rate": 0.72,
    "monthly_revenue": 10476,
    "title": "Rumah Azure 2BR — Canggu",
    "zone": "Canggu"
  },
  {
    "id": 36,
    "latitude": -8.666143,
    "longitude": 115.144271,
    "price_per_night": 500,
    "bedrooms": 4,
    "occupancy_rate": 0.59,
    "monthly_revenue": 8850,
    "title": "The Oasis 4BR — Canggu",
    "zone": "Canggu"
  },
  {
    "id": 37,
    "latitude": -8.640129,
    "longitude": 115.156614,
    "price_per_night": 410,
    "bedrooms": 4,
    "occupancy_rate": 0.78,
    "monthly_revenue": 9594,
    "title": "The Bamboo 4BR — Canggu",
    "zone": "Canggu"
  },
  {
    "id": 38,
    "latitude": -8.669123,
    "longitude": 115.154559,
    "price_per_night": 465,
    "bedrooms": 4,
    "occupancy_rate": 0.69,
    "monthly_revenue": 9625,
    "title": "Omah Tranquil 4BR — Berawa",
    "zone": "Berawa"
  },
  {
    "id": 39,
    "latitude": -8.663671,
    "longitude": 115.140548,
    "price_per_night": 290,
    "bedrooms": 3,
    "occupancy_rate": 0.62,
    "monthly_revenue": 5394,
    "title": "Villa Serenity 3BR — Canggu",
    "zone": "Canggu"
  },
  {
    "id": 40,
    "latitude": -8.653848,
    "longitude": 115.142392,
    "price_per_night": 360,
    "bedrooms": 5,
    "occupancy_rate": 0.69,
    "monthly_revenue": 7452,
    "title": "Joglo Sunset 5BR — Canggu",
    "zone": "Canggu"
  },
  {
    "id": 41,
    "latitude": -8.652434,
    "longitude": 115.135727,
    "price_per_night": 285,
    "bedrooms": 3,
    "occupancy_rate": 0.8,
    "monthly_revenue": 6840,
    "title": "The Bloom 3BR — Canggu",
    "zone": "Canggu"
  },
  {
    "id": 42,
    "latitude": -8.645597,
    "longitude": 115.161278,
    "price_per_night": 390,
    "bedrooms": 2,
    "occupancy_rate": 0.69,
    "monthly_revenue": 8073,
    "title": "Casa Azure 2BR — Berawa",
    "zone": "Berawa"
  },
  {
    "id": 43,
    "latitude": -8.649682,
    "longitude": 115.126255,
    "price_per_night": 305,
    "bedrooms": 4,
    "occupancy_rate": 0.8,
    "monthly_revenue": 7320,
    "title": "Rumah Frangipani 4BR — Pererenan",
    "zone": "Pererenan"
  },
  {
    "id": 44,
    "latitude": -8.665162,
    "longitude": 115.137172,
    "price_per_night": 425,
    "bedrooms": 5,
    "occupancy_rate": 0.71,
    "monthly_revenue": 9053,
    "title": "The Jasmine 5BR — Batu Bolong",
    "zone": "Batu Bolong"
  },
  {
    "id": 45,
    "latitude": -8.666493,
    "longitude": 115.150692,
    "price_per_night": 390,
    "bedrooms": 1,
    "occupancy_rate": 0.67,
    "monthly_revenue": 7839,
    "title": "Puri Lush 1BR — Canggu",
    "zone": "Canggu"
  },
  {
    "id": 46,
    "latitude": -8.651316,
    "longitude": 115.150416,
    "price_per_night": 345,
    "bedrooms": 5,
    "occupancy_rate": 0.65,
    "monthly_revenue": 6728,
    "title": "Joglo Sunset 5BR — Canggu",
    "zone": "Canggu"
  },
  {
    "id": 47,
    "latitude": -8.640207,
    "longitude": 115.138426,
    "price_per_night": 270,
    "bedrooms": 2,
    "occupancy_rate": 0.78,
    "monthly_revenue": 6318,
    "title": "Omah Sunset 2BR — Canggu",
    "zone": "Canggu"
  },
  {
    "id": 48,
    "latitude": -8.665927,
    "longitude": 115.131234,
    "price_per_night": 390,
    "bedrooms": 5,
    "occupancy_rate": 0.66,
    "monthly_revenue": 7722,
    "title": "Joglo Tropical 5BR — Canggu",
    "zone": "Canggu"
  },
  {
    "id": 49,
    "latitude": -8.655361,
    "longitude": 115.143719,
    "price_per_night": 420,
    "bedrooms": 1,
    "occupancy_rate": 0.62,
    "monthly_revenue": 7812,
    "title": "Joglo Ricefield 1BR — Canggu",
    "zone": "Canggu"
  },
  {
    "id": 50,
    "latitude": -8.666029,
    "longitude": 115.152291,
    "price_per_night": 415,
    "bedrooms": 1,
    "occupancy_rate": 0.72,
    "monthly_revenue": 8964,
    "title": "Puri Paradise 1BR — Canggu",
    "zone": "Canggu"
  },
  {
    "id": 51,
    "latitude": -8.658116,
    "longitude": 115.151787,
    "price_per_night": 260,
    "bedrooms": 3,
    "occupancy_rate": 0.59,
    "monthly_revenue": 4602,
    "title": "Rumah Saffron 3BR — Canggu",
    "zone": "Canggu"
  },
  {
    "id": 52,
    "latitude": -8.642,
    "longitude": 115.131853,
    "price_per_night": 435,
    "bedrooms": 5,
    "occupancy_rate": 0.75,
    "monthly_revenue": 9788,
    "title": "Omah Sunset 5BR — Canggu",
    "zone": "Canggu"
  },
  {
    "id": 53,
    "latitude": -8.651317,
    "longitude": 115.147744,
    "price_per_night": 360,
    "bedrooms": 4,
    "occupancy_rate": 0.61,
    "monthly_revenue": 6588,
    "title": "Puri Saffron 4BR — Canggu",
    "zone": "Canggu"
  },
  {
    "id": 54,
    "latitude": -8.650631,
    "longitude": 115.125859,
    "price_per_night": 275,
    "bedrooms": 3,
    "occupancy_rate": 0.78,
    "monthly_revenue": 6435,
    "title": "Puri Saffron 3BR — Pererenan",
    "zone": "Pererenan"
  },
  {
    "id": 55,
    "latitude": -8.658236,
    "longitude": 115.145564,
    "price_per_night": 270,
    "bedrooms": 4,
    "occupancy_rate": 0.68,
    "monthly_revenue": 5508,
    "title": "Puri Tropical 4BR — Batu Bolong",
    "zone": "Batu Bolong"
  },
  {
    "id": 56,
    "latitude": -8.642238,
    "longitude": 115.143924,
    "price_per_night": 305,
    "bedrooms": 2,
    "occupancy_rate": 0.65,
    "monthly_revenue": 5948,
    "title": "Rumah Indigo 2BR — Canggu",
    "zone": "Canggu"
  },
  {
    "id": 57,
    "latitude": -8.662577,
    "longitude": 115.172622,
    "price_per_night": 285,
    "bedrooms": 2,
    "occupancy_rate": 0.61,
    "monthly_revenue": 5216,
    "title": "Casa Jasmine 2BR — Berawa",
    "zone": "Berawa"
  },
  {
    "id": 58,
    "latitude": -8.647324,
    "longitude": 115.154936,
    "price_per_night": 345,
    "bedrooms": 4,
    "occupancy_rate": 0.7,
    "monthly_revenue": 7245,
    "title": "The Bloom 4BR — Canggu",
    "zone": "Canggu"
  },
  {
    "id": 59,
    "latitude": -8.650515,
    "longitude": 115.15556,
    "price_per_night": 345,
    "bedrooms": 1,
    "occupancy_rate": 0.59,
    "monthly_revenue": 6106,
    "title": "Omah Lotus 1BR — Canggu",
    "zone": "Canggu"
  },
  {
    "id": 60,
    "latitude": -8.652597,
    "longitude": 115.133467,
    "price_per_night": 245,
    "bedrooms": 2,
    "occupancy_rate": 0.63,
    "monthly_revenue": 4631,
    "title": "Villa Lush 2BR — Pererenan",
    "zone": "Pererenan"
  },
  {
    "id": 61,
    "latitude": -8.667321,
    "longitude": 115.184009,
    "price_per_night": 205,
    "bedrooms": 1,
    "occupancy_rate": 0.76,
    "monthly_revenue": 4674,
    "title": "Joglo Indigo 1BR — Berawa",
    "zone": "Berawa"
  },
  {
    "id": 62,
    "latitude": -8.662654,
    "longitude": 115.142299,
    "price_per_night": 455,
    "bedrooms": 5,
    "occupancy_rate": 0.64,
    "monthly_revenue": 8736,
    "title": "Rumah Lotus 5BR — Batu Bolong",
    "zone": "Batu Bolong"
  },
  {
    "id": 63,
    "latitude": -8.6429,
    "longitude": 115.131842,
    "price_per_night": 435,
    "bedrooms": 4,
    "occupancy_rate": 0.57,
    "monthly_revenue": 7439,
    "title": "Puri Breeze 4BR — Canggu",
    "zone": "Canggu"
  },
  {
    "id": 64,
    "latitude": -8.664241,
    "longitude": 115.140575,
    "price_per_night": 210,
    "bedrooms": 3,
    "occupancy_rate": 0.8,
    "monthly_revenue": 5040,
    "title": "Omah Ricefield 3BR — Batu Bolong",
    "zone": "Batu Bolong"
  },
  {
    "id": 65,
    "latitude": -8.659458,
    "longitude": 115.140033,
    "price_per_night": 240,
    "bedrooms": 3,
    "occupancy_rate": 0.76,
    "monthly_revenue": 5472,
    "title": "Casa Coconut 3BR — Batu Bolong",
    "zone": "Batu Bolong"
  },
  {
    "id": 66,
    "latitude": -8.660045,
    "longitude": 115.147367,
    "price_per_night": 365,
    "bedrooms": 3,
    "occupancy_rate": 0.76,
    "monthly_revenue": 8322,
    "title": "Villa Ricefield 3BR — Canggu",
    "zone": "Canggu"
  },
  {
    "id": 67,
    "latitude": -8.653815,
    "longitude": 115.168549,
    "price_per_night": 350,
    "bedrooms": 4,
    "occupancy_rate": 0.69,
    "monthly_revenue": 7245,
    "title": "Rumah Tropical 4BR — Berawa",
    "zone": "Berawa"
  },
  {
    "id": 68,
    "latitude": -8.646011,
    "longitude": 115.142465,
    "price_per_night": 365,
    "bedrooms": 2,
    "occupancy_rate": 0.66,
    "monthly_revenue": 7227,
    "title": "Joglo Verdant 2BR — Canggu",
    "zone": "Canggu"
  },
  {
    "id": 69,
    "latitude": -8.671066,
    "longitude": 115.157613,
    "price_per_night": 285,
    "bedrooms": 4,
    "occupancy_rate": 0.64,
    "monthly_revenue": 5472,
    "title": "Casa Ricefield 4BR — Berawa",
    "zone": "Berawa"
  },
  {
    "id": 70,
    "latitude": -8.661439,
    "longitude": 115.158257,
    "price_per_night": 370,
    "bedrooms": 5,
    "occupancy_rate": 0.63,
    "monthly_revenue": 6993,
    "title": "Puri Verdant 5BR — Berawa",
    "zone": "Berawa"
  },
  {
    "id": 71,
    "latitude": -8.664344,
    "longitude": 115.14685,
    "price_per_night": 415,
    "bedrooms": 4,
    "occupancy_rate": 0.7,
    "monthly_revenue": 8715,
    "title": "The Azure 4BR — Batu Bolong",
    "zone": "Batu Bolong"
  },
  {
    "id": 72,
    "latitude": -8.659657,
    "longitude": 115.168823,
    "price_per_night": 215,
    "bedrooms": 1,
    "occupancy_rate": 0.76,
    "monthly_revenue": 4902,
    "title": "The Tranquil 1BR — Berawa",
    "zone": "Berawa"
  },
  {
    "id": 73,
    "latitude": -8.649098,
    "longitude": 115.14725,
    "price_per_night": 245,
    "bedrooms": 2,
    "occupancy_rate": 0.71,
    "monthly_revenue": 5219,
    "title": "Joglo Lush 2BR — Canggu",
    "zone": "Canggu"
  },
  {
    "id": 74,
    "latitude": -8.667219,
    "longitude": 115.141381,
    "price_per_night": 160,
    "bedrooms": 1,
    "occupancy_rate": 0.77,
    "monthly_revenue": 3696,
    "title": "Joglo Frangipani 1BR — Batu Bolong",
    "zone": "Batu Bolong"
  },
  {
    "id": 75,
    "latitude": -8.654642,
    "longitude": 115.133053,
    "price_per_night": 195,
    "bedrooms": 1,
    "occupancy_rate": 0.65,
    "monthly_revenue": 3803,
    "title": "Puri Tranquil 1BR — Pererenan",
    "zone": "Pererenan"
  },
  {
    "id": 76,
    "latitude": -8.665811,
    "longitude": 115.135425,
    "price_per_night": 265,
    "bedrooms": 1,
    "occupancy_rate": 0.8,
    "monthly_revenue": 6360,
    "title": "Rumah Indigo 1BR — Canggu",
    "zone": "Canggu"
  },
  {
    "id": 77,
    "latitude": -8.644243,
    "longitude": 115.131182,
    "price_per_night": 430,
    "bedrooms": 5,
    "occupancy_rate": 0.59,
    "monthly_revenue": 7611,
    "title": "Joglo Verdant 5BR — Canggu",
    "zone": "Canggu"
  },
  {
    "id": 78,
    "latitude": -8.657722,
    "longitude": 115.161453,
    "price_per_night": 410,
    "bedrooms": 2,
    "occupancy_rate": 0.62,
    "monthly_revenue": 7626,
    "title": "Casa Oasis 2BR — Berawa",
    "zone": "Berawa"
  },
  {
    "id": 79,
    "latitude": -8.671938,
    "longitude": 115.146709,
    "price_per_night": 255,
    "bedrooms": 2,
    "occupancy_rate": 0.59,
    "monthly_revenue": 4514,
    "title": "Omah Serenity 2BR — Batu Bolong",
    "zone": "Batu Bolong"
  },
  {
    "id": 80,
    "latitude": -8.647445,
    "longitude": 115.165842,
    "price_per_night": 240,
    "bedrooms": 4,
    "occupancy_rate": 0.74,
    "monthly_revenue": 5328,
    "title": "Casa Paradise 4BR — Berawa",
    "zone": "Berawa"
  },
  {
    "id": 81,
    "latitude": -8.640837,
    "longitude": 115.134134,
    "price_per_night": 420,
    "bedrooms": 2,
    "occupancy_rate": 0.75,
    "monthly_revenue": 9450,
    "title": "Puri Bloom 2BR — Canggu",
    "zone": "Canggu"
  },
  {
    "id": 82,
    "latitude": -8.644433,
    "longitude": 115.135668,
    "price_per_night": 365,
    "bedrooms": 5,
    "occupancy_rate": 0.59,
    "monthly_revenue": 6461,
    "title": "Casa Oasis 5BR — Canggu",
    "zone": "Canggu"
  },
  {
    "id": 83,
    "latitude": -8.655968,
    "longitude": 115.130932,
    "price_per_night": 490,
    "bedrooms": 5,
    "occupancy_rate": 0.77,
    "monthly_revenue": 11319,
    "title": "The Bloom 5BR — Canggu",
    "zone": "Canggu"
  },
  {
    "id": 84,
    "latitude": -8.659229,
    "longitude": 115.140668,
    "price_per_night": 345,
    "bedrooms": 1,
    "occupancy_rate": 0.6,
    "monthly_revenue": 6210,
    "title": "Rumah Saffron 1BR — Canggu",
    "zone": "Canggu"
  },
  {
    "id": 85,
    "latitude": -8.650567,
    "longitude": 115.133965,
    "price_per_night": 460,
    "bedrooms": 3,
    "occupancy_rate": 0.71,
    "monthly_revenue": 9798,
    "title": "Villa Breeze 3BR — Canggu",
    "zone": "Canggu"
  },
  {
    "id": 86,
    "latitude": -8.666108,
    "longitude": 115.149904,
    "price_per_night": 155,
    "bedrooms": 2,
    "occupancy_rate": 0.82,
    "monthly_revenue": 3813,
    "title": "Casa Tranquil 2BR — Batu Bolong",
    "zone": "Batu Bolong"
  },
  {
    "id": 87,
    "latitude": -8.657551,
    "longitude": 115.125096,
    "price_per_night": 165,
    "bedrooms": 2,
    "occupancy_rate": 0.74,
    "monthly_revenue": 3663,
    "title": "Villa Indigo 2BR — Pererenan",
    "zone": "Pererenan"
  },
  {
    "id": 88,
    "latitude": -8.662289,
    "longitude": 115.132398,
    "price_per_night": 155,
    "bedrooms": 2,
    "occupancy_rate": 0.61,
    "monthly_revenue": 2837,
    "title": "Joglo Coconut 2BR — Batu Bolong",
    "zone": "Batu Bolong"
  },
  {
    "id": 89,
    "latitude": -8.6515,
    "longitude": 115.155368,
    "price_per_night": 445,
    "bedrooms": 5,
    "occupancy_rate": 0.61,
    "monthly_revenue": 8144,
    "title": "Villa Lush 5BR — Berawa",
    "zone": "Berawa"
  },
  {
    "id": 90,
    "latitude": -8.657238,
    "longitude": 115.125337,
    "price_per_night": 220,
    "bedrooms": 4,
    "occupancy_rate": 0.76,
    "monthly_revenue": 5016,
    "title": "Casa Lotus 4BR — Pererenan",
    "zone": "Pererenan"
  },
  {
    "id": 91,
    "latitude": -8.644118,
    "longitude": 115.14577,
    "price_per_night": 340,
    "bedrooms": 2,
    "occupancy_rate": 0.73,
    "monthly_revenue": 7446,
    "title": "Villa Tranquil 2BR — Canggu",
    "zone": "Canggu"
  },
  {
    "id": 92,
    "latitude": -8.638665,
    "longitude": 115.156137,
    "price_per_night": 465,
    "bedrooms": 5,
    "occupancy_rate": 0.67,
    "monthly_revenue": 9347,
    "title": "Rumah Paradise 5BR — Canggu",
    "zone": "Canggu"
  },
  {
    "id": 93,
    "latitude": -8.652877,
    "longitude": 115.158416,
    "price_per_night": 245,
    "bedrooms": 3,
    "occupancy_rate": 0.65,
    "monthly_revenue": 4778,
    "title": "Omah Indigo 3BR — Berawa",
    "zone": "Berawa"
  },
  {
    "id": 94,
    "latitude": -8.664361,
    "longitude": 115.153546,
    "price_per_night": 245,
    "bedrooms": 4,
    "occupancy_rate": 0.68,
    "monthly_revenue": 4998,
    "title": "Omah Ricefield 4BR — Canggu",
    "zone": "Canggu"
  },
  {
    "id": 95,
    "latitude": -8.651633,
    "longitude": 115.162555,
    "price_per_night": 295,
    "bedrooms": 5,
    "occupancy_rate": 0.58,
    "monthly_revenue": 5133,
    "title": "Villa Paradise 5BR — Berawa",
    "zone": "Berawa"
  },
  {
    "id": 96,
    "latitude": -8.658208,
    "longitude": 115.183164,
    "price_per_night": 475,
    "bedrooms": 5,
    "occupancy_rate": 0.56,
    "monthly_revenue": 7980,
    "title": "Puri Oasis 5BR — Berawa",
    "zone": "Berawa"
  },
  {
    "id": 97,
    "latitude": -8.654327,
    "longitude": 115.144459,
    "price_per_night": 455,
    "bedrooms": 5,
    "occupancy_rate": 0.61,
    "monthly_revenue": 8327,
    "title": "Puri Lotus 5BR — Canggu",
    "zone": "Canggu"
  },
  {
    "id": 98,
    "latitude": -8.643563,
    "longitude": 115.131021,
    "price_per_night": 195,
    "bedrooms": 2,
    "occupancy_rate": 0.69,
    "monthly_revenue": 4036,
    "title": "Rumah Lush 2BR — Pererenan",
    "zone": "Pererenan"
  },
  {
    "id": 99,
    "latitude": -8.644357,
    "longitude": 115.150282,
    "price_per_night": 440,
    "bedrooms": 1,
    "occupancy_rate": 0.75,
    "monthly_revenue": 9900,
    "title": "Joglo Paradise 1BR — Canggu",
    "zone": "Canggu"
  },
  {
    "id": 100,
    "latitude": -8.668071,
    "longitude": 115.165523,
    "price_per_night": 295,
    "bedrooms": 3,
    "occupancy_rate": 0.64,
    "monthly_revenue": 5664,
    "title": "The Azure 3BR — Berawa",
    "zone": "Berawa"
  },
  {
    "id": 101,
    "latitude": -8.643112,
    "longitude": 115.171279,
    "price_per_night": 415,
    "bedrooms": 3,
    "occupancy_rate": 0.56,
    "monthly_revenue": 6972,
    "title": "Villa Frangipani 3BR — Berawa",
    "zone": "Berawa"
  },
  {
    "id": 102,
    "latitude": -8.654374,
    "longitude": 115.165821,
    "price_per_night": 295,
    "bedrooms": 4,
    "occupancy_rate": 0.71,
    "monthly_revenue": 6284,
    "title": "Villa Coconut 4BR — Berawa",
    "zone": "Berawa"
  },
  {
    "id": 103,
    "latitude": -8.642095,
    "longitude": 115.152831,
    "price_per_night": 325,
    "bedrooms": 4,
    "occupancy_rate": 0.63,
    "monthly_revenue": 6143,
    "title": "Joglo Saffron 4BR — Berawa",
    "zone": "Berawa"
  },
  {
    "id": 104,
    "latitude": -8.671646,
    "longitude": 115.141948,
    "price_per_night": 360,
    "bedrooms": 3,
    "occupancy_rate": 0.57,
    "monthly_revenue": 6156,
    "title": "Casa Harmony 3BR — Batu Bolong",
    "zone": "Batu Bolong"
  },
  {
    "id": 105,
    "latitude": -8.661185,
    "longitude": 115.150342,
    "price_per_night": 285,
    "bedrooms": 3,
    "occupancy_rate": 0.58,
    "monthly_revenue": 4959,
    "title": "The Tropical 3BR — Canggu",
    "zone": "Canggu"
  },
  {
    "id": 106,
    "latitude": -8.660367,
    "longitude": 115.160721,
    "price_per_night": 390,
    "bedrooms": 5,
    "occupancy_rate": 0.75,
    "monthly_revenue": 8775,
    "title": "Puri Paradise 5BR — Berawa",
    "zone": "Berawa"
  },
  {
    "id": 107,
    "latitude": -8.644926,
    "longitude": 115.134018,
    "price_per_night": 495,
    "bedrooms": 5,
    "occupancy_rate": 0.64,
    "monthly_revenue": 9504,
    "title": "Rumah Coconut 5BR — Canggu",
    "zone": "Canggu"
  },
  {
    "id": 108,
    "latitude": -8.651927,
    "longitude": 115.138608,
    "price_per_night": 410,
    "bedrooms": 5,
    "occupancy_rate": 0.7,
    "monthly_revenue": 8610,
    "title": "Puri Verdant 5BR — Canggu",
    "zone": "Canggu"
  },
  {
    "id": 109,
    "latitude": -8.651865,
    "longitude": 115.155216,
    "price_per_night": 500,
    "bedrooms": 3,
    "occupancy_rate": 0.59,
    "monthly_revenue": 8850,
    "title": "Rumah Tranquil 3BR — Canggu",
    "zone": "Canggu"
  },
  {
    "id": 110,
    "latitude": -8.653474,
    "longitude": 115.133414,
    "price_per_night": 170,
    "bedrooms": 1,
    "occupancy_rate": 0.63,
    "monthly_revenue": 3213,
    "title": "Casa Tranquil 1BR — Pererenan",
    "zone": "Pererenan"
  },
  {
    "id": 111,
    "latitude": -8.666624,
    "longitude": 115.141318,
    "price_per_night": 420,
    "bedrooms": 5,
    "occupancy_rate": 0.58,
    "monthly_revenue": 7308,
    "title": "Rumah Oasis 5BR — Batu Bolong",
    "zone": "Batu Bolong"
  },
  {
    "id": 112,
    "latitude": -8.655088,
    "longitude": 115.137358,
    "price_per_night": 230,
    "bedrooms": 2,
    "occupancy_rate": 0.62,
    "monthly_revenue": 4278,
    "title": "The Lotus 2BR — Batu Bolong",
    "zone": "Batu Bolong"
  },
  {
    "id": 113,
    "latitude": -8.668395,
    "longitude": 115.175013,
    "price_per_night": 275,
    "bedrooms": 3,
    "occupancy_rate": 0.69,
    "monthly_revenue": 5692,
    "title": "Casa Paradise 3BR — Berawa",
    "zone": "Berawa"
  },
  {
    "id": 114,
    "latitude": -8.652837,
    "longitude": 115.152331,
    "price_per_night": 370,
    "bedrooms": 5,
    "occupancy_rate": 0.61,
    "monthly_revenue": 6771,
    "title": "Villa Indigo 5BR — Canggu",
    "zone": "Canggu"
  },
  {
    "id": 115,
    "latitude": -8.667554,
    "longitude": 115.148285,
    "price_per_night": 470,
    "bedrooms": 4,
    "occupancy_rate": 0.67,
    "monthly_revenue": 9447,
    "title": "Rumah Jasmine 4BR — Canggu",
    "zone": "Canggu"
  },
  {
    "id": 116,
    "latitude": -8.658214,
    "longitude": 115.143636,
    "price_per_night": 205,
    "bedrooms": 3,
    "occupancy_rate": 0.63,
    "monthly_revenue": 3875,
    "title": "Villa Lotus 3BR — Batu Bolong",
    "zone": "Batu Bolong"
  },
  {
    "id": 117,
    "latitude": -8.641424,
    "longitude": 115.170169,
    "price_per_night": 275,
    "bedrooms": 1,
    "occupancy_rate": 0.76,
    "monthly_revenue": 6270,
    "title": "Joglo Lotus 1BR — Berawa",
    "zone": "Berawa"
  },
  {
    "id": 118,
    "latitude": -8.660449,
    "longitude": 115.149971,
    "price_per_night": 295,
    "bedrooms": 2,
    "occupancy_rate": 0.59,
    "monthly_revenue": 5221,
    "title": "Joglo Jasmine 2BR — Batu Bolong",
    "zone": "Batu Bolong"
  },
  {
    "id": 119,
    "latitude": -8.647413,
    "longitude": 115.152099,
    "price_per_night": 260,
    "bedrooms": 4,
    "occupancy_rate": 0.77,
    "monthly_revenue": 6006,
    "title": "Casa Tranquil 4BR — Berawa",
    "zone": "Berawa"
  },
  {
    "id": 120,
    "latitude": -8.656343,
    "longitude": 115.173594,
    "price_per_night": 385,
    "bedrooms": 3,
    "occupancy_rate": 0.73,
    "monthly_revenue": 8432,
    "title": "Joglo Sunset 3BR — Berawa",
    "zone": "Berawa"
  },
  {
    "id": 121,
    "latitude": -8.641316,
    "longitude": 115.141631,
    "price_per_night": 320,
    "bedrooms": 4,
    "occupancy_rate": 0.6,
    "monthly_revenue": 5760,
    "title": "The Paradise 4BR — Canggu",
    "zone": "Canggu"
  },
  {
    "id": 122,
    "latitude": -8.648471,
    "longitude": 115.152845,
    "price_per_night": 315,
    "bedrooms": 2,
    "occupancy_rate": 0.7,
    "monthly_revenue": 6615,
    "title": "Rumah Tropical 2BR — Canggu",
    "zone": "Canggu"
  },
  {
    "id": 123,
    "latitude": -8.664979,
    "longitude": 115.145234,
    "price_per_night": 250,
    "bedrooms": 4,
    "occupancy_rate": 0.68,
    "monthly_revenue": 5100,
    "title": "Casa Jasmine 4BR — Batu Bolong",
    "zone": "Batu Bolong"
  },
  {
    "id": 124,
    "latitude": -8.64216,
    "longitude": 115.13218,
    "price_per_night": 465,
    "bedrooms": 3,
    "occupancy_rate": 0.75,
    "monthly_revenue": 10463,
    "title": "Rumah Bloom 3BR — Canggu",
    "zone": "Canggu"
  },
  {
    "id": 125,
    "latitude": -8.647552,
    "longitude": 115.166274,
    "price_per_night": 445,
    "bedrooms": 3,
    "occupancy_rate": 0.65,
    "monthly_revenue": 8678,
    "title": "Puri Serenity 3BR — Berawa",
    "zone": "Berawa"
  },
  {
    "id": 126,
    "latitude": -8.638804,
    "longitude": 115.131293,
    "price_per_night": 185,
    "bedrooms": 1,
    "occupancy_rate": 0.67,
    "monthly_revenue": 3719,
    "title": "Casa Frangipani 1BR — Pererenan",
    "zone": "Pererenan"
  },
  {
    "id": 127,
    "latitude": -8.666753,
    "longitude": 115.130399,
    "price_per_night": 220,
    "bedrooms": 3,
    "occupancy_rate": 0.66,
    "monthly_revenue": 4356,
    "title": "The Azure 3BR — Batu Bolong",
    "zone": "Batu Bolong"
  },
  {
    "id": 128,
    "latitude": -8.662395,
    "longitude": 115.152483,
    "price_per_night": 290,
    "bedrooms": 5,
    "occupancy_rate": 0.59,
    "monthly_revenue": 5133,
    "title": "Puri Saffron 5BR — Canggu",
    "zone": "Canggu"
  },
  {
    "id": 129,
    "latitude": -8.66172,
    "longitude": 115.136872,
    "price_per_night": 325,
    "bedrooms": 5,
    "occupancy_rate": 0.66,
    "monthly_revenue": 6435,
    "title": "The Harmony 5BR — Batu Bolong",
    "zone": "Batu Bolong"
  },
  {
    "id": 130,
    "latitude": -8.668495,
    "longitude": 115.149972,
    "price_per_night": 305,
    "bedrooms": 4,
    "occupancy_rate": 0.74,
    "monthly_revenue": 6771,
    "title": "Villa Tropical 4BR — Batu Bolong",
    "zone": "Batu Bolong"
  },
  {
    "id": 131,
    "latitude": -8.671855,
    "longitude": 115.174697,
    "price_per_night": 340,
    "bedrooms": 3,
    "occupancy_rate": 0.69,
    "monthly_revenue": 7038,
    "title": "Rumah Coconut 3BR — Berawa",
    "zone": "Berawa"
  },
  {
    "id": 132,
    "latitude": -8.667558,
    "longitude": 115.151678,
    "price_per_night": 350,
    "bedrooms": 3,
    "occupancy_rate": 0.61,
    "monthly_revenue": 6405,
    "title": "Joglo Paradise 3BR — Canggu",
    "zone": "Canggu"
  },
  {
    "id": 133,
    "latitude": -8.644488,
    "longitude": 115.148828,
    "price_per_night": 330,
    "bedrooms": 4,
    "occupancy_rate": 0.67,
    "monthly_revenue": 6633,
    "title": "Casa Lotus 4BR — Canggu",
    "zone": "Canggu"
  },
  {
    "id": 134,
    "latitude": -8.662148,
    "longitude": 115.134143,
    "price_per_night": 260,
    "bedrooms": 4,
    "occupancy_rate": 0.8,
    "monthly_revenue": 6240,
    "title": "Villa Azure 4BR — Batu Bolong",
    "zone": "Batu Bolong"
  },
  {
    "id": 135,
    "latitude": -8.662501,
    "longitude": 115.143648,
    "price_per_night": 395,
    "bedrooms": 5,
    "occupancy_rate": 0.62,
    "monthly_revenue": 7347,
    "title": "Rumah Bloom 5BR — Canggu",
    "zone": "Canggu"
  },
  {
    "id": 136,
    "latitude": -8.65596,
    "longitude": 115.135156,
    "price_per_night": 240,
    "bedrooms": 1,
    "occupancy_rate": 0.76,
    "monthly_revenue": 5472,
    "title": "Puri Frangipani 1BR — Batu Bolong",
    "zone": "Batu Bolong"
  },
  {
    "id": 137,
    "latitude": -8.662849,
    "longitude": 115.148786,
    "price_per_night": 325,
    "bedrooms": 5,
    "occupancy_rate": 0.63,
    "monthly_revenue": 6143,
    "title": "The Paradise 5BR — Batu Bolong",
    "zone": "Batu Bolong"
  },
  {
    "id": 138,
    "latitude": -8.656431,
    "longitude": 115.133674,
    "price_per_night": 310,
    "bedrooms": 4,
    "occupancy_rate": 0.63,
    "monthly_revenue": 5859,
    "title": "Omah Bamboo 4BR — Canggu",
    "zone": "Canggu"
  },
  {
    "id": 139,
    "latitude": -8.666272,
    "longitude": 115.149095,
    "price_per_night": 285,
    "bedrooms": 2,
    "occupancy_rate": 0.61,
    "monthly_revenue": 5216,
    "title": "Villa Bloom 2BR — Batu Bolong",
    "zone": "Batu Bolong"
  },
  {
    "id": 140,
    "latitude": -8.650509,
    "longitude": 115.163217,
    "price_per_night": 160,
    "bedrooms": 1,
    "occupancy_rate": 0.62,
    "monthly_revenue": 2976,
    "title": "Omah Bamboo 1BR — Berawa",
    "zone": "Berawa"
  },
  {
    "id": 141,
    "latitude": -8.664918,
    "longitude": 115.138451,
    "price_per_night": 285,
    "bedrooms": 1,
    "occupancy_rate": 0.72,
    "monthly_revenue": 6156,
    "title": "Puri Lush 1BR — Batu Bolong",
    "zone": "Batu Bolong"
  },
  {
    "id": 142,
    "latitude": -8.657555,
    "longitude": 115.173016,
    "price_per_night": 320,
    "bedrooms": 1,
    "occupancy_rate": 0.75,
    "monthly_revenue": 7200,
    "title": "Casa Breeze 1BR — Berawa",
    "zone": "Berawa"
  },
  {
    "id": 143,
    "latitude": -8.657099,
    "longitude": 115.141803,
    "price_per_night": 210,
    "bedrooms": 2,
    "occupancy_rate": 0.59,
    "monthly_revenue": 3717,
    "title": "Puri Sunset 2BR — Batu Bolong",
    "zone": "Batu Bolong"
  },
  {
    "id": 144,
    "latitude": -8.640696,
    "longitude": 115.152785,
    "price_per_night": 420,
    "bedrooms": 4,
    "occupancy_rate": 0.76,
    "monthly_revenue": 9576,
    "title": "The Lotus 4BR — Berawa",
    "zone": "Berawa"
  },
  {
    "id": 145,
    "latitude": -8.653656,
    "longitude": 115.136552,
    "price_per_night": 385,
    "bedrooms": 5,
    "occupancy_rate": 0.61,
    "monthly_revenue": 7046,
    "title": "Rumah Ricefield 5BR — Canggu",
    "zone": "Canggu"
  },
  {
    "id": 146,
    "latitude": -8.649342,
    "longitude": 115.13459,
    "price_per_night": 235,
    "bedrooms": 5,
    "occupancy_rate": 0.78,
    "monthly_revenue": 5499,
    "title": "Puri Harmony 5BR — Pererenan",
    "zone": "Pererenan"
  },
  {
    "id": 147,
    "latitude": -8.661282,
    "longitude": 115.140991,
    "price_per_night": 375,
    "bedrooms": 3,
    "occupancy_rate": 0.78,
    "monthly_revenue": 8775,
    "title": "Villa Lotus 3BR — Batu Bolong",
    "zone": "Batu Bolong"
  },
  {
    "id": 148,
    "latitude": -8.655169,
    "longitude": 115.168612,
    "price_per_night": 190,
    "bedrooms": 2,
    "occupancy_rate": 0.77,
    "monthly_revenue": 4389,
    "title": "Rumah Bloom 2BR — Berawa",
    "zone": "Berawa"
  },
  {
    "id": 149,
    "latitude": -8.661524,
    "longitude": 115.175862,
    "price_per_night": 195,
    "bedrooms": 1,
    "occupancy_rate": 0.79,
    "monthly_revenue": 4622,
    "title": "Puri Verdant 1BR — Berawa",
    "zone": "Berawa"
  },
  {
    "id": 150,
    "latitude": -8.647328,
    "longitude": 115.177228,
    "price_per_night": 225,
    "bedrooms": 2,
    "occupancy_rate": 0.65,
    "monthly_revenue": 4388,
    "title": "Joglo Paradise 2BR — Berawa",
    "zone": "Berawa"
  }
]