[
  {
    "id": 1,
    "latitude": -8.662356,
    "longitude": 115.155978,
    "price_per_night": 295,
    "bedrooms": 2,
    "occupancy_rate": 0.58,
    "monthly_revenue": 5133,
    "title": "Rumah Lotus 2BR — Canggu",
    "zone": "Canggu"
  },
  {
    "id": 2,
    "latitude": -8.65867,
    "longitude": 115.131491,
    "price_per_night": 315,
    "bedrooms": 4,
    "occupancy_rate": 0.71,
    "monthly_revenue": 6709,
    "title": "Villa Lotus 4BR — Pererenan",
    "zone": "Pererenan"
  },
  {
    "id": 3,
    "latitude": -8.657763,
    "longitude": 115.132864,
    "price_per_night": 155,
    "bedrooms": 1,
    "occupancy_rate": 0.65,
    "monthly_revenue": 3023,
    "title": "Joglo Breeze 1BR — Pererenan",
    "zone": "Pererenan"
  },
  {
    "id": 4,
    "latitude": -8.652996,
    "longitude": 115.139336,
    "price_per_night": 205,
    "bedrooms": 1,
    "occupancy_rate": 0.78,
    "monthly_revenue": 4797,
    "title": "Omah Frangipani 1BR — Batu Bolong",
    "zone": "Batu Bolong"
  },
  {
    "id": 5,
    "latitude": -8.63759,
    "longitude": 115.176341,
    "price_per_night": 495,
    "bedrooms": 4,
    "occupancy_rate": 0.64,
    "monthly_revenue": 9504,
    "title": "Villa Coconut 4BR — Berawa",
    "zone": "Berawa"
  },
  {
    "id": 6,
    "latitude": -8.641937,
    "longitude": 115.156717,
    "price_per_night": 360,
    "bedrooms": 5,
    "occupancy_rate": 0.61,
    "monthly_revenue": 6588,
    "title": "Casa Serenity 5BR — Canggu",
    "zone": "Canggu"
  },
  {
    "id": 7,
    "latitude": -8.638514,
    "longitude": 115.173015,
    "price_per_night": 410,
    "bedrooms": 1,
    "occupancy_rate": 0.69,
    "monthly_revenue": 8487,
    "title": "The Ricefield 1BR — Canggu",
    "zone": "Canggu"
  },
  {
    "id": 8,
    "latitude": -8.677426,
    "longitude": 115.142881,
    "price_per_night": 280,
    "bedrooms": 5,
    "occupancy_rate": 0.74,
    "monthly_revenue": 6216,
    "title": "The Lotus 5BR — Pererenan",
    "zone": "Pererenan"
  },
  {
    "id": 9,
    "latitude": -8.657694,
    "longitude": 115.157184,
    "price_per_night": 370,
    "bedrooms": 4,
    "occupancy_rate": 0.61,
    "monthly_revenue": 6771,
    "title": "Casa Frangipani 4BR — Canggu",
    "zone": "Canggu"
  },
  {
    "id": 10,
    "latitude": -8.649542,
    "longitude": 115.156468,
    "price_per_night": 195,
    "bedrooms": 3,
    "occupancy_rate": 0.62,
    "monthly_revenue": 3627,
    "title": "Rumah Frangipani 3BR — Batu Bolong",
    "zone": "Batu Bolong"
  },
  {
    "id": 11,
    "latitude": -8.636324,
    "longitude": 115.167908,
    "price_per_night": 140,
    "bedrooms": 1,
    "occupancy_rate": 0.79,
    "monthly_revenue": 3318,
    "title": "Joglo Bloom 1BR — Berawa",
    "zone": "Berawa"
  },
  {
    "id": 12,
    "latitude": -8.656505,
    "longitude": 115.152045,
    "price_per_night": 480,
    "bedrooms": 5,
    "occupancy_rate": 0.59,
    "monthly_revenue": 8496,
    "title": "The Azure 5BR — Canggu",
    "zone": "Canggu"
  },
  {
    "id": 13,
    "latitude": -8.654689,
    "longitude": 115.174439,
    "price_per_night": 280,
    "bedrooms": 2,
    "occupancy_rate": 0.63,
    "monthly_revenue": 5292,
    "title": "Puri Lush 2BR — Berawa",
    "zone": "Berawa"
  },
  {
    "id": 14,
    "latitude": -8.649203,
    "longitude": 115.166395,
    "price_per_night": 440,
    "bedrooms": 3,
    "occupancy_rate": 0.6,
    "monthly_revenue": 7920,
    "title": "Joglo Verdant 3BR — Berawa",
    "zone": "Berawa"
  },
  {
    "id": 15,
    "latitude": -8.679366,
    "longitude": 115.124891,
    "price_per_night": 220,
    "bedrooms": 3,
    "occupancy_rate": 0.8,
    "monthly_revenue": 5280,
    "title": "Joglo Lush 3BR — Pererenan",
    "zone": "Pererenan"
  },
  {
    "id": 16,
    "latitude": -8.648079,
    "longitude": 115.160845,
    "price_per_night": 250,
    "bedrooms": 1,
    "occupancy_rate": 0.69,
    "monthly_revenue": 5175,
    "title": "Omah Indigo 1BR — Canggu",
    "zone": "Canggu"
  },
  {
    "id": 17,
    "latitude": -8.647419,
    "longitude": 115.174352,
    "price_per_night": 345,
    "bedrooms": 4,
    "occupancy_rate": 0.62,
    "monthly_revenue": 6417,
    "title": "Omah Azure 4BR — Berawa",
    "zone": "Berawa"
  },
  {
    "id": 18,
    "latitude": -8.649029,
    "longitude": 115.15789,
    "price_per_night": 315,
    "bedrooms": 4,
    "occupancy_rate": 0.8,
    "monthly_revenue": 7560,
    "title": "Joglo Jasmine 4BR — Batu Bolong",
    "zone": "Batu Bolong"
  },
  {
    "id": 19,
    "latitude": -8.648692,
    "longitude": 115.157713,
    "price_per_night": 410,
    "bedrooms": 2,
    "occupancy_rate": 0.56,
    "monthly_revenue": 6888,
    "title": "Joglo Paradise 2BR — Canggu",
    "zone": "Canggu"
  },
  {
    "id": 20,
    "latitude": -8.640729,
    "longitude": 115.155919,
    "price_per_night": 345,
    "bedrooms": 3,
    "occupancy_rate": 0.58,
    "monthly_revenue": 6003,
    "title": "Villa Lotus 3BR — Berawa",
    "zone": "Berawa"
  },
  {
    "id": 21,
    "latitude": -8.648183,
    "longitude": 115.149355,
    "price_per_night": 425,
    "bedrooms": 5,
    "occupancy_rate": 0.69,
    "monthly_revenue": 8798,
    "title": "The Lush 5BR — Canggu",
    "zone": "Canggu"
  },
  {
    "id": 22,
    "latitude": -8.657946,
    "longitude": 115.132988,
    "price_per_night": 295,
    "bedrooms": 4,
    "occupancy_rate": 0.71,
    "monthly_revenue": 6284,
    "title": "Casa Lotus 4BR — Pererenan",
    "zone": "Pererenan"
  },
  {
    "id": 23,
    "latitude": -8.654729,
    "longitude": 115.14986,
    "price_per_night": 405,
    "bedrooms": 4,
    "occupancy_rate": 0.75,
    "monthly_revenue": 9113,
    "title": "The Frangipani 4BR — Canggu",
    "zone": "Canggu"
  },
  {
    "id": 24,
    "latitude": -8.643083,
    "longitude": 115.153543,
    "price_per_night": 420,
    "bedrooms": 4,
    "occupancy_rate": 0.62,
    "monthly_revenue": 7812,
    "title": "Omah Indigo 4BR — Canggu",
    "zone": "Canggu"
  },
  {
    "id": 25,
    "latitude": -8.657571,
    "longitude": 115.150942,
    "price_per_night": 315,
    "bedrooms": 3,
    "occupancy_rate": 0.57,
    "monthly_revenue": 5386,
    "title": "Rumah Harmony 3BR — Batu Bolong",
    "zone": "Batu Bolong"
  },
  {
    "id": 26,
    "latitude": -8.653403,
    "longitude": 115.173824,
    "price_per_night": 395,
    "bedrooms": 4,
    "occupancy_rate": 0.58,
    "monthly_revenue": 6873,
    "title": "Rumah Saffron 4BR — Canggu",
    "zone": "Canggu"
  },
  {
    "id": 27,
    "latitude": -8.660395,
    "longitude": 115.16674,
    "price_per_night": 445,
    "bedrooms": 5,
    "occupancy_rate": 0.58,
    "monthly_revenue": 7743,
    "title": "Casa Bloom 5BR — Canggu",
    "zone": "Canggu"
  },
  {
    "id": 28,
    "latitude": -8.647138,
    "longitude": 115.140011,
    "price_per_night": 405,
    "bedrooms": 4,
    "occupancy_rate": 0.7,
    "monthly_revenue": 8505,
    "title": "Puri Oasis 4BR — Batu Bolong",
    "zone": "Batu Bolong"
  },
  {
    "id": 29,
    "latitude": -8.653319,
    "longitude": 115.155237,
    "price_per_night": 235,
    "bedrooms": 2,
    "occupancy_rate": 0.72,
    "monthly_revenue": 5076,
    "title": "Casa Coconut 2BR — Batu Bolong",
    "zone": "Batu Bolong"
  },
  {
    "id": 30,
    "latitude": -8.641193,
    "longitude": 115.160832,
    "price_per_night": 250,
    "bedrooms": 2,
    "occupancy_rate": 0.6,
    "monthly_revenue": 4500,
    "title": "Omah Indigo 2BR — Canggu",
    "zone": "Canggu"
  },
  {
    "id": 31,
    "latitude": -8.651913,
    "longitude": 115.158158,
    "price_per_night": 305,
    "bedrooms": 5,
    "occupancy_rate": 0.67,
    "monthly_revenue": 6131,
    "title": "Puri Tropical 5BR — Berawa",
    "zone": "Berawa"
  },
  {
    "id": 32,
    "latitude": -8.658047,
    "longitude": 115.173235,
    "price_per_night": 255,
    "bedrooms": 4,
    "occupancy_rate": 0.78,
    "monthly_revenue": 5967,
    "title": "Casa Ricefield 4BR — Canggu",
    "zone": "Canggu"
  },
  {
    "id": 33,
    "latitude": -8.659887,
    "longitude": 115.130486,
    "price_per_night": 190,
    "bedrooms": 1,
    "occupancy_rate": 0.69,
    "monthly_revenue": 3933,
    "title": "Joglo Serenity 1BR — Pererenan",
    "zone": "Pererenan"
  },
  {
    "id": 34,
    "latitude": -8.642926,
    "longitude": 115.142468,
    "price_per_night": 445,
    "bedrooms": 2,
    "occupancy_rate": 0.71,
    "monthly_revenue": 9479,
    "title": "Villa Breeze 2BR — Canggu",
    "zone": "Canggu"
  },
  {
    "id": 35,
    "latitude": -8.642889,
    "longitude": 115.137979,
    "price_per_night": 485,
    "bedrooms": 2,
    "occupancy_rate": 0.72,
    "monthly_revenue": 10476,
    "title": "Rumah Azure 2BR — Canggu",
    "zone": "Canggu"
  },
  {
    "id": 36,
    "latitude": -8.663143,
    "longitude": 115.152936,
    "price_per_night": 500,
    "bedrooms": 4,
    "occupancy_rate": 0.59,
    "monthly_revenue": 8850,
    "title": "The Oasis 4BR — Canggu",
    "zone": "Canggu"
  },
  {
    "id": 37,
    "latitude": -8.637129,
    "longitude": 115.172772,
    "price_per_night": 410,
    "bedrooms": 4,
    "occupancy_rate": 0.78,
    "monthly_revenue": 9594,
    "title": "The Bamboo 4BR — Canggu",
    "zone": "Canggu"
  },
  {
    "id": 38,
    "latitude": -8.652753,
    "longitude": 115.157326,
    "price_per_night": 465,
    "bedrooms": 4,
    "occupancy_rate": 0.69,
    "monthly_revenue": 9625,
    "title": "Omah Tranquil 4BR — Berawa",
    "zone": "Berawa"
  },
  {
    "id": 39,
    "latitude": -8.660671,
    "longitude": 115.146952,
    "price_per_night": 290,
    "bedrooms": 3,
    "occupancy_rate": 0.62,
    "monthly_revenue": 5394,
    "title": "Villa Serenity 3BR — Canggu",
    "zone": "Canggu"
  },
  {
    "id": 40,
    "latitude": -8.650848,
    "longitude": 115.149916,
    "price_per_night": 360,
    "bedrooms": 5,
    "occupancy_rate": 0.69,
    "monthly_revenue": 7452,
    "title": "Joglo Sunset 5BR — Canggu",
    "zone": "Canggu"
  },
  {
    "id": 41,
    "latitude": -8.649434,
    "longitude": 115.139205,
    "price_per_night": 285,
    "bedrooms": 3,
    "occupancy_rate": 0.8,
    "monthly_revenue": 6840,
    "title": "The Bloom 3BR — Canggu",
    "zone": "Canggu"
  },
  {
    "id": 42,
    "latitude": -8.634372,
    "longitude": 115.163434,
    "price_per_night": 390,
    "bedrooms": 2,
    "occupancy_rate": 0.69,
    "monthly_revenue": 8073,
    "title": "Casa Azure 2BR — Berawa",
    "zone": "Berawa"
  },
  {
    "id": 43,
    "latitude": -8.671401,
    "longitude": 115.121389,
    "price_per_night": 305,
    "bedrooms": 4,
    "occupancy_rate": 0.8,
    "monthly_revenue": 7320,
    "title": "Rumah Frangipani 4BR — Pererenan",
    "zone": "Pererenan"
  },
  {
    "id": 44,
    "latitude": -8.653967,
    "longitude": 115.14589,
    "price_per_night": 425,
    "bedrooms": 5,
    "occupancy_rate": 0.71,
    "monthly_revenue": 9053,
    "title": "The Jasmine 5BR — Batu Bolong",
    "zone": "Batu Bolong"
  },
  {
    "id": 45,
    "latitude": -8.663493,
    "longitude": 115.163255,
    "price_per_night": 390,
    "bedrooms": 1,
    "occupancy_rate": 0.67,
    "monthly_revenue": 7839,
    "title": "Puri Lush 1BR — Canggu",
    "zone": "Canggu"
  },
  {
    "id": 46,
    "latitude": -8.648316,
    "longitude": 115.162812,
    "price_per_night": 345,
    "bedrooms": 5,
    "occupancy_rate": 0.65,
    "monthly_revenue": 6728,
    "title": "Joglo Sunset 5BR — Canggu",
    "zone": "Canggu"
  },
  {
    "id": 47,
    "latitude": -8.637207,
    "longitude": 115.143541,
    "price_per_night": 270,
    "bedrooms": 2,
    "occupancy_rate": 0.78,
    "monthly_revenue": 6318,
    "title": "Omah Sunset 2BR — Canggu",
    "zone": "Canggu"
  },
  {
    "id": 48,
    "latitude": -8.662927,
    "longitude": 115.131982,
    "price_per_night": 390,
    "bedrooms": 5,
    "occupancy_rate": 0.66,
    "monthly_revenue": 7722,
    "title": "Joglo Tropical 5BR — Canggu",
    "zone": "Canggu"
  },
  {
    "id": 49,
    "latitude": -8.652361,
    "longitude": 115.152048,
    "price_per_night": 420,
    "bedrooms": 1,
    "occupancy_rate": 0.62,
    "monthly_revenue": 7812,
    "title": "Joglo Ricefield 1BR — Canggu",
    "zone": "Canggu"
  },
  {
    "id": 50,
    "latitude": -8.663029,
    "longitude": 115.165825,
    "price_per_night": 415,
    "bedrooms": 1,
    "occupancy_rate": 0.72,
    "monthly_revenue": 8964,
    "title": "Puri Paradise 1BR — Canggu",
    "zone": "Canggu"
  },
  {
    "id": 51,
    "latitude": -8.655116,
    "longitude": 115.165014,
    "price_per_night": 260,
    "bedrooms": 3,
    "occupancy_rate": 0.59,
    "monthly_revenue": 4602,
    "title": "Rumah Saffron 3BR — Canggu",
    "zone": "Canggu"
  },
  {
    "id": 52,
    "latitude": -8.639,
    "longitude": 115.132978,
    "price_per_night": 435,
    "bedrooms": 5,
    "occupancy_rate": 0.75,
    "monthly_revenue": 9788,
    "title": "Omah Sunset 5BR — Canggu",
    "zone": "Canggu"
  },
  {
    "id": 53,
    "latitude": -8.648317,
    "longitude": 115.158517,
    "price_per_night": 360,
    "bedrooms": 4,
    "occupancy_rate": 0.61,
    "monthly_revenue": 6588,
    "title": "Puri Saffron 4BR — Canggu",
    "zone": "Canggu"
  },
  {
    "id": 54,
    "latitude": -8.672192,
    "longitude": 115.120319,
    "price_per_night": 275,
    "bedrooms": 3,
    "occupancy_rate": 0.78,
    "monthly_revenue": 6435,
    "title": "Puri Saffron 3BR — Pererenan",
    "zone": "Pererenan"
  },
  {
    "id": 55,
    "latitude": -8.647855,
    "longitude": 115.15512,
    "price_per_night": 270,
    "bedrooms": 4,
    "occupancy_rate": 0.68,
    "monthly_revenue": 5508,
    "title": "Puri Tropical 4BR — Batu Bolong",
    "zone": "Batu Bolong"
  },
  {
    "id": 56,
    "latitude": -8.639238,
    "longitude": 115.152378,
    "price_per_night": 305,
    "bedrooms": 2,
    "occupancy_rate": 0.65,
    "monthly_revenue": 5948,
    "title": "Rumah Indigo 2BR — Canggu",
    "zone": "Canggu"
  },
  {
    "id": 57,
    "latitude": -8.647638,
    "longitude": 115.173747,
    "price_per_night": 285,
    "bedrooms": 2,
    "occupancy_rate": 0.61,
    "monthly_revenue": 5216,
    "title": "Casa Jasmine 2BR — Berawa",
    "zone": "Berawa"
  },
  {
    "id": 58,
    "latitude": -8.644324,
    "longitude": 115.170075,
    "price_per_night": 345,
    "bedrooms": 4,
    "occupancy_rate": 0.7,
    "monthly_revenue": 7245,
    "title": "The Bloom 4BR — Canggu",
    "zone": "Canggu"
  },
  {
    "id": 59,
    "latitude": -8.647515,
    "longitude": 115.171079,
    "price_per_night": 345,
    "bedrooms": 1,
    "occupancy_rate": 0.59,
    "monthly_revenue": 6106,
    "title": "Omah Lotus 1BR — Canggu",
    "zone": "Canggu"
  },
  {
    "id": 60,
    "latitude": -8.673831,
    "longitude": 115.140861,
    "price_per_night": 245,
    "bedrooms": 2,
    "occupancy_rate": 0.63,
    "monthly_revenue": 4631,
    "title": "Villa Lush 2BR — Pererenan",
    "zone": "Pererenan"
  },
  {
    "id": 61,
    "latitude": -8.651345,
    "longitude": 115.184099,
    "price_per_night": 205,
    "bedrooms": 1,
    "occupancy_rate": 0.76,
    "monthly_revenue": 4674,
    "title": "Joglo Indigo 1BR — Berawa",
    "zone": "Berawa"
  },
  {
    "id": 62,
    "latitude": -8.651754,
    "longitude": 115.151529,
    "price_per_night": 455,
    "bedrooms": 5,
    "occupancy_rate": 0.64,
    "monthly_revenue": 8736,
    "title": "Rumah Lotus 5BR — Batu Bolong",
    "zone": "Batu Bolong"
  },
  {
    "id": 63,
    "latitude": -8.6399,
    "longitude": 115.13296,
    "price_per_night": 435,
    "bedrooms": 4,
    "occupancy_rate": 0.57,
    "monthly_revenue": 7439,
    "title": "Puri Breeze 4BR — Canggu",
    "zone": "Canggu"
  },
  {
    "id": 64,
    "latitude": -8.653153,
    "longitude": 115.149632,
    "price_per_night": 210,
    "bedrooms": 3,
    "occupancy_rate": 0.8,
    "monthly_revenue": 5040,
    "title": "Omah Ricefield 3BR — Batu Bolong",
    "zone": "Batu Bolong"
  },
  {
    "id": 65,
    "latitude": -8.648934,
    "longitude": 115.149037,
    "price_per_night": 240,
    "bedrooms": 3,
    "occupancy_rate": 0.76,
    "monthly_revenue": 5472,
    "title": "Casa Coconut 3BR — Batu Bolong",
    "zone": "Batu Bolong"
  },
  {
    "id": 66,
    "latitude": -8.657045,
    "longitude": 115.157911,
    "price_per_night": 365,
    "bedrooms": 3,
    "occupancy_rate": 0.76,
    "monthly_revenue": 8322,
    "title": "Villa Ricefield 3BR — Canggu",
    "zone": "Canggu"
  },
  {
    "id": 67,
    "latitude": -8.640793,
    "longitude": 115.170045,
    "price_per_night": 350,
    "bedrooms": 4,
    "occupancy_rate": 0.69,
    "monthly_revenue": 7245,
    "title": "Rumah Tropical 4BR — Berawa",
    "zone": "Berawa"
  },
  {
    "id": 68,
    "latitude": -8.643011,
    "longitude": 115.150033,
    "price_per_night": 365,
    "bedrooms": 2,
    "occupancy_rate": 0.66,
    "monthly_revenue": 7227,
    "title": "Joglo Verdant 2BR — Canggu",
    "zone": "Canggu"
  },
  {
    "id": 69,
    "latitude": -8.65427,
    "longitude": 115.160103,
    "price_per_night": 285,
    "bedrooms": 4,
    "occupancy_rate": 0.64,
    "monthly_revenue": 5472,
    "title": "Casa Ricefield 4BR — Berawa",
    "zone": "Berawa"
  },
  {
    "id": 70,
    "latitude": -8.646749,
    "longitude": 115.160688,
    "price_per_night": 370,
    "bedrooms": 5,
    "occupancy_rate": 0.63,
    "monthly_revenue": 6993,
    "title": "Puri Verdant 5BR — Berawa",
    "zone": "Berawa"
  },
  {
    "id": 71,
    "latitude": -8.653245,
    "longitude": 115.156535,
    "price_per_night": 415,
    "bedrooms": 4,
    "occupancy_rate": 0.7,
    "monthly_revenue": 8715,
    "title": "The Azure 4BR — Batu Bolong",
    "zone": "Batu Bolong"
  },
  {
    "id": 72,
    "latitude": -8.645357,
    "longitude": 115.170294,
    "price_per_night": 215,
    "bedrooms": 1,
    "occupancy_rate": 0.76,
    "monthly_revenue": 4902,
    "title": "The Tranquil 1BR — Berawa",
    "zone": "Berawa"
  },
  {
    "id": 73,
    "latitude": -8.646098,
    "longitude": 115.157724,
    "price_per_night": 245,
    "bedrooms": 2,
    "occupancy_rate": 0.71,
    "monthly_revenue": 5219,
    "title": "Joglo Lush 2BR — Canggu",
    "zone": "Canggu"
  },
  {
    "id": 74,
    "latitude": -8.655781,
    "longitude": 115.150519,
    "price_per_night": 160,
    "bedrooms": 1,
    "occupancy_rate": 0.77,
    "monthly_revenue": 3696,
    "title": "Joglo Frangipani 1BR — Batu Bolong",
    "zone": "Batu Bolong"
  },
  {
    "id": 75,
    "latitude": -8.675535,
    "longitude": 115.139742,
    "price_per_night": 195,
    "bedrooms": 1,
    "occupancy_rate": 0.65,
    "monthly_revenue": 3803,
    "title": "Puri Tranquil 1BR — Pererenan",
    "zone": "Pererenan"
  },
  {
    "id": 76,
    "latitude": -8.662811,
    "longitude": 115.138719,
    "price_per_night": 265,
    "bedrooms": 1,
    "occupancy_rate": 0.8,
    "monthly_revenue": 6360,
    "title": "Rumah Indigo 1BR — Canggu",
    "zone": "Canggu"
  },
  {
    "id": 77,
    "latitude": -8.641243,
    "longitude": 115.1319,
    "price_per_night": 430,
    "bedrooms": 5,
    "occupancy_rate": 0.59,
    "monthly_revenue": 7611,
    "title": "Joglo Verdant 5BR — Canggu",
    "zone": "Canggu"
  },
  {
    "id": 78,
    "latitude": -8.643845,
    "longitude": 115.163594,
    "price_per_night": 410,
    "bedrooms": 2,
    "occupancy_rate": 0.62,
    "monthly_revenue": 7626,
    "title": "Casa Oasis 2BR — Berawa",
    "zone": "Berawa"
  },
  {
    "id": 79,
    "latitude": -8.659945,
    "longitude": 115.15638,
    "price_per_night": 255,
    "bedrooms": 2,
    "occupancy_rate": 0.59,
    "monthly_revenue": 4514,
    "title": "Omah Serenity 2BR — Batu Bolong",
    "zone": "Batu Bolong"
  },
  {
    "id": 80,
    "latitude": -8.635817,
    "longitude": 115.167583,
    "price_per_night": 240,
    "bedrooms": 4,
    "occupancy_rate": 0.74,
    "monthly_revenue": 5328,
    "title": "Casa Paradise 4BR — Berawa",
    "zone": "Berawa"
  },
  {
    "id": 81,
    "latitude": -8.637837,
    "longitude": 115.136644,
    "price_per_night": 420,
    "bedrooms": 2,
    "occupancy_rate": 0.75,
    "monthly_revenue": 9450,
    "title": "Puri Bloom 2BR — Canggu",
    "zone": "Canggu"
  },
  {
    "id": 82,
    "latitude": -8.641433,
    "longitude": 115.13911,
    "price_per_night": 365,
    "bedrooms": 5,
    "occupancy_rate": 0.59,
    "monthly_revenue": 6461,
    "title": "Casa Oasis 5BR — Canggu",
    "zone": "Canggu"
  },
  {
    "id": 83,
    "latitude": -8.652968,
    "longitude": 115.131498,
    "price_per_night": 490,
    "bedrooms": 5,
    "occupancy_rate": 0.77,
    "monthly_revenue": 11319,
    "title": "The Bloom 5BR — Canggu",
    "zone": "Canggu"
  },
  {
    "id": 84,
    "latitude": -8.656229,
    "longitude": 115.147145,
    "price_per_night": 345,
    "bedrooms": 1,
    "occupancy_rate": 0.6,
    "monthly_revenue": 6210,
    "title": "Rumah Saffron 1BR — Canggu",
    "zone": "Canggu"
  },
  {
    "id": 85,
    "latitude": -8.647567,
    "longitude": 115.136372,
    "price_per_night": 460,
    "bedrooms": 3,
    "occupancy_rate": 0.71,
    "monthly_revenue": 9798,
    "title": "Villa Breeze 3BR — Canggu",
    "zone": "Canggu"
  },
  {
    "id": 86,
    "latitude": -8.654801,
    "longitude": 115.159895,
    "price_per_night": 155,
    "bedrooms": 2,
    "occupancy_rate": 0.82,
    "monthly_revenue": 3813,
    "title": "Casa Tranquil 2BR — Batu Bolong",
    "zone": "Batu Bolong"
  },
  {
    "id": 87,
    "latitude": -8.677959,
    "longitude": 115.11826,
    "price_per_night": 165,
    "bedrooms": 2,
    "occupancy_rate": 0.74,
    "monthly_revenue": 3663,
    "title": "Villa Indigo 2BR — Pererenan",
    "zone": "Pererenan"
  },
  {
    "id": 88,
    "latitude": -8.651431,
    "longitude": 115.140638,
    "price_per_night": 155,
    "bedrooms": 2,
    "occupancy_rate": 0.61,
    "monthly_revenue": 2837,
    "title": "Joglo Coconut 2BR — Batu Bolong",
    "zone": "Batu Bolong"
  },
  {
    "id": 89,
    "latitude": -8.638985,
    "longitude": 115.158062,
    "price_per_night": 445,
    "bedrooms": 5,
    "occupancy_rate": 0.61,
    "monthly_revenue": 8144,
    "title": "Villa Lush 5BR — Berawa",
    "zone": "Berawa"
  },
  {
    "id": 90,
    "latitude": -8.677698,
    "longitude": 115.118909,
    "price_per_night": 220,
    "bedrooms": 4,
    "occupancy_rate": 0.76,
    "monthly_revenue": 5016,
    "title": "Casa Lotus 4BR — Pererenan",
    "zone": "Pererenan"
  },
  {
    "id": 91,
    "latitude": -8.641118,
    "longitude": 115.155344,
    "price_per_night": 340,
    "bedrooms": 2,
    "occupancy_rate": 0.73,
    "monthly_revenue": 7446,
    "title": "Villa Tranquil 2BR — Canggu",
    "zone": "Canggu"
  },
  {
    "id": 92,
    "latitude": -8.635665,
    "longitude": 115.172005,
    "price_per_night": 465,
    "bedrooms": 5,
    "occupancy_rate": 0.67,
    "monthly_revenue": 9347,
    "title": "Rumah Paradise 5BR — Canggu",
    "zone": "Canggu"
  },
  {
    "id": 93,
    "latitude": -8.64006,
    "longitude": 115.160833,
    "price_per_night": 245,
    "bedrooms": 3,
    "occupancy_rate": 0.65,
    "monthly_revenue": 4778,
    "title": "Omah Indigo 3BR — Berawa",
    "zone": "Berawa"
  },
  {
    "id": 94,
    "latitude": -8.661361,
    "longitude": 115.167842,
    "price_per_night": 245,
    "bedrooms": 4,
    "occupancy_rate": 0.68,
    "monthly_revenue": 4998,
    "title": "Omah Ricefield 4BR — Canggu",
    "zone": "Canggu"
  },
  {
    "id": 95,
    "latitude": -8.639088,
    "longitude": 115.164596,
    "price_per_night": 295,
    "bedrooms": 5,
    "occupancy_rate": 0.58,
    "monthly_revenue": 5133,
    "title": "Villa Paradise 5BR — Berawa",
    "zone": "Berawa"
  },
  {
    "id": 96,
    "latitude": -8.644225,
    "longitude": 115.183331,
    "price_per_night": 475,
    "bedrooms": 5,
    "occupancy_rate": 0.56,
    "monthly_revenue": 7980,
    "title": "Puri Oasis 5BR — Berawa",
    "zone": "Berawa"
  },
  {
    "id": 97,
    "latitude": -8.651327,
    "longitude": 115.153237,
    "price_per_night": 455,
    "bedrooms": 5,
    "occupancy_rate": 0.61,
    "monthly_revenue": 8327,
    "title": "Puri Lotus 5BR — Canggu",
    "zone": "Canggu"
  },
  {
    "id": 98,
    "latitude": -8.666303,
    "longitude": 115.134256,
    "price_per_night": 195,
    "bedrooms": 2,
    "occupancy_rate": 0.69,
    "monthly_revenue": 4036,
    "title": "Rumah Lush 2BR — Pererenan",
    "zone": "Pererenan"
  },
  {
    "id": 99,
    "latitude": -8.641357,
    "longitude": 115.162595,
    "price_per_night": 440,
    "bedrooms": 1,
    "occupancy_rate": 0.75,
    "monthly_revenue": 9900,
    "title": "Joglo Paradise 1BR — Canggu",
    "zone": "Canggu"
  },
  {
    "id": 100,
    "latitude": -8.65193,
    "longitude": 115.167293,
    "price_per_night": 295,
    "bedrooms": 3,
    "occupancy_rate": 0.64,
    "monthly_revenue": 5664,
    "title": "The Azure 3BR — Berawa",
    "zone": "Berawa"
  },
  {
    "id": 101,
    "latitude": -8.632431,
    "longitude": 115.172526,
    "price_per_night": 415,
    "bedrooms": 3,
    "occupancy_rate": 0.56,
    "monthly_revenue": 6972,
    "title": "Villa Frangipani 3BR — Berawa",
    "zone": "Berawa"
  },
  {
    "id": 102,
    "latitude": -8.641229,
    "longitude": 115.167564,
    "price_per_night": 295,
    "bedrooms": 4,
    "occupancy_rate": 0.71,
    "monthly_revenue": 6284,
    "title": "Villa Coconut 4BR — Berawa",
    "zone": "Berawa"
  },
  {
    "id": 103,
    "latitude": -8.631637,
    "longitude": 115.155756,
    "price_per_night": 325,
    "bedrooms": 4,
    "occupancy_rate": 0.63,
    "monthly_revenue": 6143,
    "title": "Joglo Saffron 4BR — Berawa",
    "zone": "Berawa"
  },
  {
    "id": 104,
    "latitude": -8.659688,
    "longitude": 115.151143,
    "price_per_night": 360,
    "bedrooms": 3,
    "occupancy_rate": 0.57,
    "monthly_revenue": 6156,
    "title": "Casa Harmony 3BR — Batu Bolong",
    "zone": "Batu Bolong"
  },
  {
    "id": 105,
    "latitude": -8.658185,
    "longitude": 115.162693,
    "price_per_night": 285,
    "bedrooms": 3,
    "occupancy_rate": 0.58,
    "monthly_revenue": 4959,
    "title": "The Tropical 3BR — Canggu",
    "zone": "Canggu"
  },
  {
    "id": 106,
    "latitude": -8.645911,
    "longitude": 115.162929,
    "price_per_night": 390,
    "bedrooms": 5,
    "occupancy_rate": 0.75,
    "monthly_revenue": 8775,
    "title": "Puri Paradise 5BR — Berawa",
    "zone": "Berawa"
  },
  {
    "id": 107,
    "latitude": -8.641926,
    "longitude": 115.136457,
    "price_per_night": 495,
    "bedrooms": 5,
    "occupancy_rate": 0.64,
    "monthly_revenue": 9504,
    "title": "Rumah Coconut 5BR — Canggu",
    "zone": "Canggu"
  },
  {
    "id": 108,
    "latitude": -8.648927,
    "longitude": 115.143835,
    "price_per_night": 410,
    "bedrooms": 5,
    "occupancy_rate": 0.7,
    "monthly_revenue": 8610,
    "title": "Puri Verdant 5BR — Canggu",
    "zone": "Canggu"
  },
  {
    "id": 109,
    "latitude": -8.648865,
    "longitude": 115.170526,
    "price_per_night": 500,
    "bedrooms": 3,
    "occupancy_rate": 0.59,
    "monthly_revenue": 8850,
    "title": "Rumah Tranquil 3BR — Canggu",
    "zone": "Canggu"
  },
  {
    "id": 110,
    "latitude": -8.674561,
    "longitude": 115.140719,
    "price_per_night": 170,
    "bedrooms": 1,
    "occupancy_rate": 0.63,
    "monthly_revenue": 3213,
    "title": "Casa Tranquil 1BR — Pererenan",
    "zone": "Pererenan"
  },
  {
    "id": 111,
    "latitude": -8.655256,
    "longitude": 115.15045,
    "price_per_night": 420,
    "bedrooms": 5,
    "occupancy_rate": 0.58,
    "monthly_revenue": 7308,
    "title": "Rumah Oasis 5BR — Batu Bolong",
    "zone": "Batu Bolong"
  },
  {
    "id": 112,
    "latitude": -8.645078,
    "longitude": 115.146094,
    "price_per_night": 230,
    "bedrooms": 2,
    "occupancy_rate": 0.62,
    "monthly_revenue": 4278,
    "title": "The Lotus 2BR — Batu Bolong",
    "zone": "Batu Bolong"
  },
  {
    "id": 113,
    "latitude": -8.652184,
    "longitude": 115.175921,
    "price_per_night": 275,
    "bedrooms": 3,
    "occupancy_rate": 0.69,
    "monthly_revenue": 5692,
    "title": "Casa Paradise 3BR — Berawa",
    "zone": "Berawa"
  },
  {
    "id": 114,
    "latitude": -8.649837,
    "longitude": 115.16589,
    "price_per_night": 370,
    "bedrooms": 5,
    "occupancy_rate": 0.61,
    "monthly_revenue": 6771,
    "title": "Villa Indigo 5BR — Canggu",
    "zone": "Canggu"
  },
  {
    "id": 115,
    "latitude": -8.664554,
    "longitude": 115.159386,
    "price_per_night": 470,
    "bedrooms": 4,
    "occupancy_rate": 0.67,
    "monthly_revenue": 9447,
    "title": "Rumah Jasmine 4BR — Canggu",
    "zone": "Canggu"
  },
  {
    "id": 116,
    "latitude": -8.647836,
    "longitude": 115.153,
    "price_per_night": 205,
    "bedrooms": 3,
    "occupancy_rate": 0.63,
    "monthly_revenue": 3875,
    "title": "Villa Lotus 3BR — Batu Bolong",
    "zone": "Batu Bolong"
  },
  {
    "id": 117,
    "latitude": -8.631112,
    "longitude": 115.171517,
    "price_per_night": 275,
    "bedrooms": 1,
    "occupancy_rate": 0.76,
    "monthly_revenue": 6270,
    "title": "Joglo Lotus 1BR — Berawa",
    "zone": "Berawa"
  },
  {
    "id": 118,
    "latitude": -8.649808,
    "longitude": 115.159968,
    "price_per_night": 295,
    "bedrooms": 2,
    "occupancy_rate": 0.59,
    "monthly_revenue": 5221,
    "title": "Joglo Jasmine 2BR — Batu Bolong",
    "zone": "Batu Bolong"
  },
  {
    "id": 119,
    "latitude": -8.635791,
    "longitude": 115.15509,
    "price_per_night": 260,
    "bedrooms": 4,
    "occupancy_rate": 0.77,
    "monthly_revenue": 6006,
    "title": "Casa Tranquil 4BR — Berawa",
    "zone": "Berawa"
  },
  {
    "id": 120,
    "latitude": -8.642768,
    "longitude": 115.174631,
    "price_per_night": 385,
    "bedrooms": 3,
    "occupancy_rate": 0.73,
    "monthly_revenue": 8432,
    "title": "Joglo Sunset 3BR — Berawa",
    "zone": "Berawa"
  },
  {
    "id": 121,
    "latitude": -8.638316,
    "longitude": 115.148692,
    "price_per_night": 320,
    "bedrooms": 4,
    "occupancy_rate": 0.6,
    "monthly_revenue": 5760,
    "title": "The Paradise 4BR — Canggu",
    "zone": "Canggu"
  },
  {
    "id": 122,
    "latitude": -8.645471,
    "longitude": 115.166715,
    "price_per_night": 315,
    "bedrooms": 2,
    "occupancy_rate": 0.7,
    "monthly_revenue": 6615,
    "title": "Rumah Tropical 2BR — Canggu",
    "zone": "Canggu"
  },
  {
    "id": 123,
    "latitude": -8.653805,
    "longitude": 115.154758,
    "price_per_night": 250,
    "bedrooms": 4,
    "occupancy_rate": 0.68,
    "monthly_revenue": 5100,
    "title": "Casa Jasmine 4BR — Batu Bolong",
    "zone": "Batu Bolong"
  },
  {
    "id": 124,
    "latitude": -8.63916,
    "longitude": 115.133504,
    "price_per_night": 465,
    "bedrooms": 3,
    "occupancy_rate": 0.75,
    "monthly_revenue": 10463,
    "title": "Rumah Bloom 3BR — Canggu",
    "zone": "Canggu"
  },
  {
    "id": 125,
    "latitude": -8.6359,
    "longitude": 115.167977,
    "price_per_night": 445,
    "bedrooms": 3,
    "occupancy_rate": 0.65,
    "monthly_revenue": 8678,
    "title": "Puri Serenity 3BR — Berawa",
    "zone": "Berawa"
  },
  {
    "id": 126,
    "latitude": -8.662337,
    "longitude": 115.134992,
    "price_per_night": 185,
    "bedrooms": 1,
    "occupancy_rate": 0.67,
    "monthly_revenue": 3719,
    "title": "Casa Frangipani 1BR — Pererenan",
    "zone": "Pererenan"
  },
  {
    "id": 127,
    "latitude": -8.65537,
    "longitude": 115.138439,
    "price_per_night": 220,
    "bedrooms": 3,
    "occupancy_rate": 0.66,
    "monthly_revenue": 4356,
    "title": "The Azure 3BR — Batu Bolong",
    "zone": "Batu Bolong"
  },
  {
    "id": 128,
    "latitude": -8.659395,
    "longitude": 115.166134,
    "price_per_night": 290,
    "bedrooms": 5,
    "occupancy_rate": 0.59,
    "monthly_revenue": 5133,
    "title": "Puri Saffron 5BR — Canggu",
    "zone": "Canggu"
  },
  {
    "id": 129,
    "latitude": -8.650929,
    "longitude": 115.145559,
    "price_per_night": 325,
    "bedrooms": 5,
    "occupancy_rate": 0.66,
    "monthly_revenue": 6435,
    "title": "The Harmony 5BR — Batu Bolong",
    "zone": "Batu Bolong"
  },
  {
    "id": 130,
    "latitude": -8.656908,
    "longitude": 115.159969,
    "price_per_night": 305,
    "bedrooms": 4,
    "occupancy_rate": 0.74,
    "monthly_revenue": 6771,
    "title": "Villa Tropical 4BR — Batu Bolong",
    "zone": "Batu Bolong"
  },
  {
    "id": 131,
    "latitude": -8.654887,
    "longitude": 115.175634,
    "price_per_night": 340,
    "bedrooms": 3,
    "occupancy_rate": 0.69,
    "monthly_revenue": 7038,
    "title": "Rumah Coconut 3BR — Berawa",
    "zone": "Berawa"
  },
  {
    "id": 132,
    "latitude": -8.664558,
    "longitude": 115.16484,
    "price_per_night": 350,
    "bedrooms": 3,
    "occupancy_rate": 0.61,
    "monthly_revenue": 6405,
    "title": "Joglo Paradise 3BR — Canggu",
    "zone": "Canggu"
  },
  {
    "id": 133,
    "latitude": -8.641488,
    "longitude": 115.160259,
    "price_per_night": 330,
    "bedrooms": 4,
    "occupancy_rate": 0.67,
    "monthly_revenue": 6633,
    "title": "Casa Lotus 4BR — Canggu",
    "zone": "Canggu"
  },
  {
    "id": 134,
    "latitude": -8.651307,
    "longitude": 115.142558,
    "price_per_night": 260,
    "bedrooms": 4,
    "occupancy_rate": 0.8,
    "monthly_revenue": 6240,
    "title": "Villa Azure 4BR — Batu Bolong",
    "zone": "Batu Bolong"
  },
  {
    "id": 135,
    "latitude": -8.659501,
    "longitude": 115.151935,
    "price_per_night": 395,
    "bedrooms": 5,
    "occupancy_rate": 0.62,
    "monthly_revenue": 7347,
    "title": "Rumah Bloom 5BR — Canggu",
    "zone": "Canggu"
  },
  {
    "id": 136,
    "latitude": -8.645847,
    "longitude": 115.143672,
    "price_per_night": 240,
    "bedrooms": 1,
    "occupancy_rate": 0.76,
    "monthly_revenue": 5472,
    "title": "Puri Frangipani 1BR — Batu Bolong",
    "zone": "Batu Bolong"
  },
  {
    "id": 137,
    "latitude": -8.651925,
    "longitude": 115.158664,
    "price_per_night": 325,
    "bedrooms": 5,
    "occupancy_rate": 0.63,
    "monthly_revenue": 6143,
    "title": "The Paradise 5BR — Batu Bolong",
    "zone": "Batu Bolong"
  },
  {
    "id": 138,
    "latitude": -8.653431,
    "longitude": 115.135904,
    "price_per_night": 310,
    "bedrooms": 4,
    "occupancy_rate": 0.63,
    "monthly_revenue": 5859,
    "title": "Omah Bamboo 4BR — Canggu",
    "zone": "Canggu"
  },
  {
    "id": 139,
    "latitude": -8.654946,
    "longitude": 115.159005,
    "price_per_night": 285,
    "bedrooms": 2,
    "occupancy_rate": 0.61,
    "monthly_revenue": 5216,
    "title": "Villa Bloom 2BR — Batu Bolong",
    "zone": "Batu Bolong"
  },
  {
    "id": 140,
    "latitude": -8.63821,
    "longitude": 115.165197,
    "price_per_night": 160,
    "bedrooms": 1,
    "occupancy_rate": 0.62,
    "monthly_revenue": 2976,
    "title": "Omah Bamboo 1BR — Berawa",
    "zone": "Berawa"
  },
  {
    "id": 141,
    "latitude": -8.653751,
    "longitude": 115.147296,
    "price_per_night": 285,
    "bedrooms": 1,
    "occupancy_rate": 0.72,
    "monthly_revenue": 6156,
    "title": "Puri Lush 1BR — Batu Bolong",
    "zone": "Batu Bolong"
  },
  {
    "id": 142,
    "latitude": -8.643715,
    "longitude": 115.174106,
    "price_per_night": 320,
    "bedrooms": 1,
    "occupancy_rate": 0.75,
    "monthly_revenue": 7200,
    "title": "Casa Breeze 1BR — Berawa",
    "zone": "Berawa"
  },
  {
    "id": 143,
    "latitude": -8.646852,
    "longitude": 115.150983,
    "price_per_night": 210,
    "bedrooms": 2,
    "occupancy_rate": 0.59,
    "monthly_revenue": 3717,
    "title": "Puri Sunset 2BR — Batu Bolong",
    "zone": "Batu Bolong"
  },
  {
    "id": 144,
    "latitude": -8.630544,
    "longitude": 115.155713,
    "price_per_night": 420,
    "bedrooms": 4,
    "occupancy_rate": 0.76,
    "monthly_revenue": 9576,
    "title": "The Lotus 4BR — Berawa",
    "zone": "Berawa"
  },
  {
    "id": 145,
    "latitude": -8.650656,
    "longitude": 115.14053,
    "price_per_night": 385,
    "bedrooms": 5,
    "occupancy_rate": 0.61,
    "monthly_revenue": 7046,
    "title": "Rumah Ricefield 5BR — Canggu",
    "zone": "Canggu"
  },
  {
    "id": 146,
    "latitude": -8.671118,
    "longitude": 115.143893,
    "price_per_night": 235,
    "bedrooms": 5,
    "occupancy_rate": 0.78,
    "monthly_revenue": 5499,
    "title": "Puri Harmony 5BR — Pererenan",
    "zone": "Pererenan"
  },
  {
    "id": 147,
    "latitude": -8.650543,
    "longitude": 115.15009,
    "price_per_night": 375,
    "bedrooms": 3,
    "occupancy_rate": 0.78,
    "monthly_revenue": 8775,
    "title": "Villa Lotus 3BR — Batu Bolong",
    "zone": "Batu Bolong"
  },
  {
    "id": 148,
    "latitude": -8.641851,
    "longitude": 115.170101,
    "price_per_night": 190,
    "bedrooms": 2,
    "occupancy_rate": 0.77,
    "monthly_revenue": 4389,
    "title": "Rumah Bloom 2BR — Berawa",
    "zone": "Berawa"
  },
  {
    "id": 149,
    "latitude": -8.646816,
    "longitude": 115.176693,
    "price_per_night": 195,
    "bedrooms": 1,
    "occupancy_rate": 0.79,
    "monthly_revenue": 4622,
    "title": "Puri Verdant 1BR — Berawa",
    "zone": "Berawa"
  },
  {
    "id": 150,
    "latitude": -8.635725,
    "longitude": 115.177934,
    "price_per_night": 225,
    "bedrooms": 2,
    "occupancy_rate": 0.65,
    "monthly_revenue": 4388,
    "title": "Joglo Paradise 2BR — Berawa",
    "zone": "Berawa"
  }
]