[
  {
    "id": 1,
    "latitude": -8.666414,
    "longitude": 115.143587,
    "price_per_night": 295,
    "bedrooms": 2,
    "occupancy_rate": 0.58,
    "monthly_revenue": 5133,
    "title": "Rumah Lotus 2BR — Canggu",
    "zone": "Canggu"
  },
  {
    "id": 2,
    "latitude": -8.635578,
    "longitude": 115.113991,
    "price_per_night": 315,
    "bedrooms": 4,
    "occupancy_rate": 0.71,
    "monthly_revenue": 6709,
    "title": "Villa Lotus 4BR — Pererenan",
    "zone": "Pererenan"
  },
  {
    "id": 3,
    "latitude": -8.6342,
    "longitude": 115.115414,
    "price_per_night": 155,
    "bedrooms": 1,
    "occupancy_rate": 0.65,
    "monthly_revenue": 3023,
    "title": "Joglo Breeze 1BR — Pererenan",
    "zone": "Pererenan"
  },
  {
    "id": 4,
    "latitude": -8.665463,
    "longitude": 115.119336,
    "price_per_night": 205,
    "bedrooms": 1,
    "occupancy_rate": 0.78,
    "monthly_revenue": 4797,
    "title": "Omah Frangipani 1BR — Batu Bolong",
    "zone": "Batu Bolong"
  },
  {
    "id": 5,
    "latitude": -8.658072,
    "longitude": 115.167207,
    "price_per_night": 495,
    "bedrooms": 4,
    "occupancy_rate": 0.64,
    "monthly_revenue": 9504,
    "title": "Villa Coconut 4BR — Berawa",
    "zone": "Berawa"
  },
  {
    "id": 6,
    "latitude": -8.654162,
    "longitude": 115.14403,
    "price_per_night": 360,
    "bedrooms": 5,
    "occupancy_rate": 0.61,
    "monthly_revenue": 6588,
    "title": "Casa Serenity 5BR — Canggu",
    "zone": "Canggu"
  },
  {
    "id": 7,
    "latitude": -8.652108,
    "longitude": 115.153809,
    "price_per_night": 410,
    "bedrooms": 1,
    "occupancy_rate": 0.69,
    "monthly_revenue": 8487,
    "title": "The Ricefield 1BR — Canggu",
    "zone": "Canggu"
  },
  {
    "id": 8,
    "latitude": -8.664087,
    "longitude": 115.125802,
    "price_per_night": 280,
    "bedrooms": 5,
    "occupancy_rate": 0.74,
    "monthly_revenue": 6216,
    "title": "The Lotus 5BR — Pererenan",
    "zone": "Pererenan"
  },
  {
    "id": 9,
    "latitude": -8.663616,
    "longitude": 115.144311,
    "price_per_night": 370,
    "bedrooms": 4,
    "occupancy_rate": 0.61,
    "monthly_revenue": 6771,
    "title": "Casa Frangipani 4BR — Canggu",
    "zone": "Canggu"
  },
  {
    "id": 10,
    "latitude": -8.66224,
    "longitude": 115.136468,
    "price_per_night": 195,
    "bedrooms": 3,
    "occupancy_rate": 0.62,
    "monthly_revenue": 3627,
    "title": "Rumah Frangipani 3BR — Batu Bolong",
    "zone": "Batu Bolong"
  },
  {
    "id": 11,
    "latitude": -8.657059,
    "longitude": 115.159617,
    "price_per_night": 140,
    "bedrooms": 1,
    "occupancy_rate": 0.79,
    "monthly_revenue": 3318,
    "title": "Joglo Bloom 1BR — Berawa",
    "zone": "Berawa"
  },
  {
    "id": 12,
    "latitude": -8.662903,
    "longitude": 115.141227,
    "price_per_night": 480,
    "bedrooms": 5,
    "occupancy_rate": 0.59,
    "monthly_revenue": 8496,
    "title": "The Azure 5BR — Canggu",
    "zone": "Canggu"
  },
  {
    "id": 13,
    "latitude": -8.671751,
    "longitude": 115.165495,
    "price_per_night": 280,
    "bedrooms": 2,
    "occupancy_rate": 0.63,
    "monthly_revenue": 5292,
    "title": "Puri Lush 2BR — Berawa",
    "zone": "Berawa"
  },
  {
    "id": 14,
    "latitude": -8.667363,
    "longitude": 115.158255,
    "price_per_night": 440,
    "bedrooms": 3,
    "occupancy_rate": 0.6,
    "monthly_revenue": 7920,
    "title": "Joglo Verdant 3BR — Berawa",
    "zone": "Berawa"
  },
  {
    "id": 15,
    "latitude": -8.667036,
    "longitude": 115.107146,
    "price_per_night": 220,
    "bedrooms": 3,
    "occupancy_rate": 0.8,
    "monthly_revenue": 5280,
    "title": "Joglo Lush 3BR — Pererenan",
    "zone": "Pererenan"
  },
  {
    "id": 16,
    "latitude": -8.657847,
    "longitude": 115.146507,
    "price_per_night": 250,
    "bedrooms": 1,
    "occupancy_rate": 0.69,
    "monthly_revenue": 5175,
    "title": "Omah Indigo 1BR — Canggu",
    "zone": "Canggu"
  },
  {
    "id": 17,
    "latitude": -8.665935,
    "longitude": 115.165417,
    "price_per_night": 345,
    "bedrooms": 4,
    "occupancy_rate": 0.62,
    "monthly_revenue": 6417,
    "title": "Omah Azure 4BR — Berawa",
    "zone": "Berawa"
  },
  {
    "id": 18,
    "latitude": -8.66176,
    "longitude": 115.13789,
    "price_per_night": 315,
    "bedrooms": 4,
    "occupancy_rate": 0.8,
    "monthly_revenue": 7560,
    "title": "Joglo Jasmine 4BR — Batu Bolong",
    "zone": "Batu Bolong"
  },
  {
    "id": 19,
    "latitude": -8.658215,
    "longitude": 115.144628,
    "price_per_night": 410,
    "bedrooms": 2,
    "occupancy_rate": 0.56,
    "monthly_revenue": 6888,
    "title": "Joglo Paradise 2BR — Canggu",
    "zone": "Canggu"
  },
  {
    "id": 20,
    "latitude": -8.660583,
    "longitude": 115.148827,
    "price_per_night": 345,
    "bedrooms": 3,
    "occupancy_rate": 0.58,
    "monthly_revenue": 6003,
    "title": "Villa Lotus 3BR — Berawa",
    "zone": "Berawa"
  },
  {
    "id": 21,
    "latitude": -8.65791,
    "longitude": 115.139613,
    "price_per_night": 425,
    "bedrooms": 5,
    "occupancy_rate": 0.69,
    "monthly_revenue": 8798,
    "title": "The Lush 5BR — Canggu",
    "zone": "Canggu"
  },
  {
    "id": 22,
    "latitude": -8.634478,
    "longitude": 115.115543,
    "price_per_night": 295,
    "bedrooms": 4,
    "occupancy_rate": 0.71,
    "monthly_revenue": 6284,
    "title": "Casa Lotus 4BR — Pererenan",
    "zone": "Pererenan"
  },
  {
    "id": 23,
    "latitude": -8.661837,
    "longitude": 115.139916,
    "price_per_night": 405,
    "bedrooms": 4,
    "occupancy_rate": 0.75,
    "monthly_revenue": 9113,
    "title": "The Frangipani 4BR — Canggu",
    "zone": "Canggu"
  },
  {
    "id": 24,
    "latitude": -8.65485,
    "longitude": 115.142126,
    "price_per_night": 420,
    "bedrooms": 4,
    "occupancy_rate": 0.62,
    "monthly_revenue": 7812,
    "title": "Omah Indigo 4BR — Canggu",
    "zone": "Canggu"
  },
  {
    "id": 25,
    "latitude": -8.669733,
    "longitude": 115.130942,
    "price_per_night": 315,
    "bedrooms": 3,
    "occupancy_rate": 0.57,
    "monthly_revenue": 5386,
    "title": "Rumah Harmony 3BR — Batu Bolong",
    "zone": "Batu Bolong"
  },
  {
    "id": 26,
    "latitude": -8.661042,
    "longitude": 115.154294,
    "price_per_night": 395,
    "bedrooms": 4,
    "occupancy_rate": 0.58,
    "monthly_revenue": 6873,
    "title": "Rumah Saffron 4BR — Canggu",
    "zone": "Canggu"
  },
  {
    "id": 27,
    "latitude": -8.665237,
    "longitude": 115.150044,
    "price_per_night": 445,
    "bedrooms": 5,
    "occupancy_rate": 0.58,
    "monthly_revenue": 7743,
    "title": "Casa Bloom 5BR — Canggu",
    "zone": "Canggu"
  },
  {
    "id": 28,
    "latitude": -8.659995,
    "longitude": 115.120011,
    "price_per_night": 405,
    "bedrooms": 4,
    "occupancy_rate": 0.7,
    "monthly_revenue": 8505,
    "title": "Puri Oasis 4BR — Batu Bolong",
    "zone": "Batu Bolong"
  },
  {
    "id": 29,
    "latitude": -8.665764,
    "longitude": 115.135237,
    "price_per_night": 235,
    "bedrooms": 2,
    "occupancy_rate": 0.72,
    "monthly_revenue": 5076,
    "title": "Casa Coconut 2BR — Batu Bolong",
    "zone": "Batu Bolong"
  },
  {
    "id": 30,
    "latitude": -8.653716,
    "longitude": 115.146499,
    "price_per_night": 250,
    "bedrooms": 2,
    "occupancy_rate": 0.6,
    "monthly_revenue": 4500,
    "title": "Omah Indigo 2BR — Canggu",
    "zone": "Canggu"
  },
  {
    "id": 31,
    "latitude": -8.669531,
    "longitude": 115.150842,
    "price_per_night": 305,
    "bedrooms": 5,
    "occupancy_rate": 0.67,
    "monthly_revenue": 6131,
    "title": "Puri Tropical 5BR — Berawa",
    "zone": "Berawa"
  },
  {
    "id": 32,
    "latitude": -8.663828,
    "longitude": 115.153941,
    "price_per_night": 255,
    "bedrooms": 4,
    "occupancy_rate": 0.78,
    "monthly_revenue": 5967,
    "title": "Casa Ricefield 4BR — Canggu",
    "zone": "Canggu"
  },
  {
    "id": 33,
    "latitude": -8.637428,
    "longitude": 115.112948,
    "price_per_night": 190,
    "bedrooms": 1,
    "occupancy_rate": 0.69,
    "monthly_revenue": 3933,
    "title": "Joglo Serenity 1BR — Pererenan",
    "zone": "Pererenan"
  },
  {
    "id": 34,
    "latitude": -8.654756,
    "longitude": 115.135481,
    "price_per_night": 445,
    "bedrooms": 2,
    "occupancy_rate": 0.71,
    "monthly_revenue": 9479,
    "title": "Villa Breeze 2BR — Canggu",
    "zone": "Canggu"
  },
  {
    "id": 35,
    "latitude": -8.654733,
    "longitude": 115.132787,
    "price_per_night": 485,
    "bedrooms": 2,
    "occupancy_rate": 0.72,
    "monthly_revenue": 10476,
    "title": "Rumah Azure 2BR — Canggu",
    "zone": "Canggu"
  },
  {
    "id": 36,
    "latitude": -8.666886,
    "longitude": 115.141761,
    "price_per_night": 500,
    "bedrooms": 4,
    "occupancy_rate": 0.59,
    "monthly_revenue": 8850,
    "title": "The Oasis 4BR — Canggu",
    "zone": "Canggu"
  },
  {
    "id": 37,
    "latitude": -8.651278,
    "longitude": 115.153663,
    "price_per_night": 410,
    "bedrooms": 4,
    "occupancy_rate": 0.78,
    "monthly_revenue": 9594,
    "title": "The Bamboo 4BR — Canggu",
    "zone": "Canggu"
  },
  {
    "id": 38,
    "latitude": -8.670202,
    "longitude": 115.150094,
    "price_per_night": 465,
    "bedrooms": 4,
    "occupancy_rate": 0.69,
    "monthly_revenue": 9625,
    "title": "Omah Tranquil 4BR — Berawa",
    "zone": "Berawa"
  },
  {
    "id": 39,
    "latitude": -8.665403,
    "longitude": 115.138171,
    "price_per_night": 290,
    "bedrooms": 3,
    "occupancy_rate": 0.62,
    "monthly_revenue": 5394,
    "title": "Villa Serenity 3BR — Canggu",
    "zone": "Canggu"
  },
  {
    "id": 40,
    "latitude": -8.659509,
    "longitude": 115.139949,
    "price_per_night": 360,
    "bedrooms": 5,
    "occupancy_rate": 0.69,
    "monthly_revenue": 7452,
    "title": "Joglo Sunset 5BR — Canggu",
    "zone": "Canggu"
  },
  {
    "id": 41,
    "latitude": -8.65866,
    "longitude": 115.133523,
    "price_per_night": 285,
    "bedrooms": 3,
    "occupancy_rate": 0.8,
    "monthly_revenue": 6840,
    "title": "The Bloom 3BR — Canggu",
    "zone": "Canggu"
  },
  {
    "id": 42,
    "latitude": -8.655498,
    "longitude": 115.155591,
    "price_per_night": 390,
    "bedrooms": 2,
    "occupancy_rate": 0.69,
    "monthly_revenue": 8073,
    "title": "Casa Azure 2BR — Berawa",
    "zone": "Berawa"
  },
  {
    "id": 43,
    "latitude": -8.65493,
    "longitude": 115.103514,
    "price_per_night": 305,
    "bedrooms": 4,
    "occupancy_rate": 0.8,
    "monthly_revenue": 7320,
    "title": "Rumah Frangipani 4BR — Pererenan",
    "zone": "Pererenan"
  },
  {
    "id": 44,
    "latitude": -8.666369,
    "longitude": 115.12589,
    "price_per_night": 425,
    "bedrooms": 5,
    "occupancy_rate": 0.71,
    "monthly_revenue": 9053,
    "title": "The Jasmine 5BR — Batu Bolong",
    "zone": "Batu Bolong"
  },
  {
    "id": 45,
    "latitude": -8.667096,
    "longitude": 115.147953,
    "price_per_night": 390,
    "bedrooms": 1,
    "occupancy_rate": 0.67,
    "monthly_revenue": 7839,
    "title": "Puri Lush 1BR — Canggu",
    "zone": "Canggu"
  },
  {
    "id": 46,
    "latitude": -8.65799,
    "longitude": 115.147687,
    "price_per_night": 345,
    "bedrooms": 5,
    "occupancy_rate": 0.65,
    "monthly_revenue": 6728,
    "title": "Joglo Sunset 5BR — Canggu",
    "zone": "Canggu"
  },
  {
    "id": 47,
    "latitude": -8.651324,
    "longitude": 115.136125,
    "price_per_night": 270,
    "bedrooms": 2,
    "occupancy_rate": 0.78,
    "monthly_revenue": 6318,
    "title": "Omah Sunset 2BR — Canggu",
    "zone": "Canggu"
  },
  {
    "id": 48,
    "latitude": -8.666756,
    "longitude": 115.129189,
    "price_per_night": 390,
    "bedrooms": 5,
    "occupancy_rate": 0.66,
    "monthly_revenue": 7722,
    "title": "Joglo Tropical 5BR — Canggu",
    "zone": "Canggu"
  },
  {
    "id": 49,
    "latitude": -8.660417,
    "longitude": 115.141229,
    "price_per_night": 420,
    "bedrooms": 1,
    "occupancy_rate": 0.62,
    "monthly_revenue": 7812,
    "title": "Joglo Ricefield 1BR — Canggu",
    "zone": "Canggu"
  },
  {
    "id": 50,
    "latitude": -8.666817,
    "longitude": 115.149495,
    "price_per_night": 415,
    "bedrooms": 1,
    "occupancy_rate": 0.72,
    "monthly_revenue": 8964,
    "title": "Puri Paradise 1BR — Canggu",
    "zone": "Canggu"
  },
  {
    "id": 51,
    "latitude": -8.66207,
    "longitude": 115.149009,
    "price_per_night": 260,
    "bedrooms": 3,
    "occupancy_rate": 0.59,
    "monthly_revenue": 4602,
    "title": "Rumah Saffron 3BR — Canggu",
    "zone": "Canggu"
  },
  {
    "id": 52,
    "latitude": -8.6524,
    "longitude": 115.129787,
    "price_per_night": 435,
    "bedrooms": 5,
    "occupancy_rate": 0.75,
    "monthly_revenue": 9788,
    "title": "Omah Sunset 5BR — Canggu",
    "zone": "Canggu"
  },
  {
    "id": 53,
    "latitude": -8.65799,
    "longitude": 115.14511,
    "price_per_night": 360,
    "bedrooms": 4,
    "occupancy_rate": 0.61,
    "monthly_revenue": 6588,
    "title": "Puri Saffron 4BR — Canggu",
    "zone": "Canggu"
  },
  {
    "id": 54,
    "latitude": -8.656132,
    "longitude": 115.102405,
    "price_per_night": 275,
    "bedrooms": 3,
    "occupancy_rate": 0.78,
    "monthly_revenue": 6435,
    "title": "Puri Saffron 3BR — Pererenan",
    "zone": "Pererenan"
  },
  {
    "id": 55,
    "latitude": -8.660665,
    "longitude": 115.13512,
    "price_per_night": 270,
    "bedrooms": 4,
    "occupancy_rate": 0.68,
    "monthly_revenue": 5508,
    "title": "Puri Tropical 4BR — Batu Bolong",
    "zone": "Batu Bolong"
  },
  {
    "id": 56,
    "latitude": -8.652543,
    "longitude": 115.141427,
    "price_per_night": 305,
    "bedrooms": 2,
    "occupancy_rate": 0.65,
    "monthly_revenue": 5948,
    "title": "Rumah Indigo 2BR — Canggu",
    "zone": "Canggu"
  },
  {
    "id": 57,
    "latitude": -8.66611,
    "longitude": 115.164872,
    "price_per_night": 285,
    "bedrooms": 2,
    "occupancy_rate": 0.61,
    "monthly_revenue": 5216,
    "title": "Casa Jasmine 2BR — Berawa",
    "zone": "Berawa"
  },
  {
    "id": 58,
    "latitude": -8.655594,
    "longitude": 115.152045,
    "price_per_night": 345,
    "bedrooms": 4,
    "occupancy_rate": 0.7,
    "monthly_revenue": 7245,
    "title": "The Bloom 4BR — Canggu",
    "zone": "Canggu"
  },
  {
    "id": 59,
    "latitude": -8.657509,
    "longitude": 115.152647,
    "price_per_night": 345,
    "bedrooms": 1,
    "occupancy_rate": 0.59,
    "monthly_revenue": 6106,
    "title": "Omah Lotus 1BR — Canggu",
    "zone": "Canggu"
  },
  {
    "id": 60,
    "latitude": -8.658623,
    "longitude": 115.123708,
    "price_per_night": 245,
    "bedrooms": 2,
    "occupancy_rate": 0.63,
    "monthly_revenue": 4631,
    "title": "Villa Lush 2BR — Pererenan",
    "zone": "Pererenan"
  },
  {
    "id": 61,
    "latitude": -8.669076,
    "longitude": 115.174189,
    "price_per_night": 205,
    "bedrooms": 1,
    "occupancy_rate": 0.76,
    "monthly_revenue": 4674,
    "title": "Joglo Indigo 1BR — Berawa",
    "zone": "Berawa"
  },
  {
    "id": 62,
    "latitude": -8.664303,
    "longitude": 115.131529,
    "price_per_night": 455,
    "bedrooms": 5,
    "occupancy_rate": 0.64,
    "monthly_revenue": 8736,
    "title": "Rumah Lotus 5BR — Batu Bolong",
    "zone": "Batu Bolong"
  },
  {
    "id": 63,
    "latitude": -8.65294,
    "longitude": 115.129776,
    "price_per_night": 435,
    "bedrooms": 4,
    "occupancy_rate": 0.57,
    "monthly_revenue": 7439,
    "title": "Puri Breeze 4BR — Canggu",
    "zone": "Canggu"
  },
  {
    "id": 64,
    "latitude": -8.66561,
    "longitude": 115.129632,
    "price_per_night": 210,
    "bedrooms": 3,
    "occupancy_rate": 0.8,
    "monthly_revenue": 5040,
    "title": "Omah Ricefield 3BR — Batu Bolong",
    "zone": "Batu Bolong"
  },
  {
    "id": 65,
    "latitude": -8.661672,
    "longitude": 115.129037,
    "price_per_night": 240,
    "bedrooms": 3,
    "occupancy_rate": 0.76,
    "monthly_revenue": 5472,
    "title": "Casa Coconut 3BR — Batu Bolong",
    "zone": "Batu Bolong"
  },
  {
    "id": 66,
    "latitude": -8.663227,
    "longitude": 115.144747,
    "price_per_night": 365,
    "bedrooms": 3,
    "occupancy_rate": 0.76,
    "monthly_revenue": 8322,
    "title": "Villa Ricefield 3BR — Canggu",
    "zone": "Canggu"
  },
  {
    "id": 67,
    "latitude": -8.660634,
    "longitude": 115.16154,
    "price_per_night": 350,
    "bedrooms": 4,
    "occupancy_rate": 0.69,
    "monthly_revenue": 7245,
    "title": "Rumah Tropical 4BR — Berawa",
    "zone": "Berawa"
  },
  {
    "id": 68,
    "latitude": -8.654807,
    "longitude": 115.14002,
    "price_per_night": 365,
    "bedrooms": 2,
    "occupancy_rate": 0.66,
    "monthly_revenue": 7227,
    "title": "Joglo Verdant 2BR — Canggu",
    "zone": "Canggu"
  },
  {
    "id": 69,
    "latitude": -8.671416,
    "longitude": 115.152593,
    "price_per_night": 285,
    "bedrooms": 4,
    "occupancy_rate": 0.64,
    "monthly_revenue": 5472,
    "title": "Casa Ricefield 4BR — Berawa",
    "zone": "Berawa"
  },
  {
    "id": 70,
    "latitude": -8.665399,
    "longitude": 115.153119,
    "price_per_night": 370,
    "bedrooms": 5,
    "occupancy_rate": 0.63,
    "monthly_revenue": 6993,
    "title": "Puri Verdant 5BR — Berawa",
    "zone": "Berawa"
  },
  {
    "id": 71,
    "latitude": -8.665695,
    "longitude": 115.136535,
    "price_per_night": 415,
    "bedrooms": 4,
    "occupancy_rate": 0.7,
    "monthly_revenue": 8715,
    "title": "The Azure 4BR — Batu Bolong",
    "zone": "Batu Bolong"
  },
  {
    "id": 72,
    "latitude": -8.664286,
    "longitude": 115.161764,
    "price_per_night": 215,
    "bedrooms": 1,
    "occupancy_rate": 0.76,
    "monthly_revenue": 4902,
    "title": "The Tranquil 1BR — Berawa",
    "zone": "Berawa"
  },
  {
    "id": 73,
    "latitude": -8.656659,
    "longitude": 115.144634,
    "price_per_night": 245,
    "bedrooms": 2,
    "occupancy_rate": 0.71,
    "monthly_revenue": 5219,
    "title": "Joglo Lush 2BR — Canggu",
    "zone": "Canggu"
  },
  {
    "id": 74,
    "latitude": -8.668063,
    "longitude": 115.130519,
    "price_per_night": 160,
    "bedrooms": 1,
    "occupancy_rate": 0.77,
    "monthly_revenue": 3696,
    "title": "Joglo Frangipani 1BR — Batu Bolong",
    "zone": "Batu Bolong"
  },
  {
    "id": 75,
    "latitude": -8.661214,
    "longitude": 115.122547,
    "price_per_night": 195,
    "bedrooms": 1,
    "occupancy_rate": 0.65,
    "monthly_revenue": 3803,
    "title": "Puri Tranquil 1BR — Pererenan",
    "zone": "Pererenan"
  },
  {
    "id": 76,
    "latitude": -8.666686,
    "longitude": 115.133231,
    "price_per_night": 265,
    "bedrooms": 1,
    "occupancy_rate": 0.8,
    "monthly_revenue": 6360,
    "title": "Rumah Indigo 1BR — Canggu",
    "zone": "Canggu"
  },
  {
    "id": 77,
    "latitude": -8.653746,
    "longitude": 115.12914,
    "price_per_night": 430,
    "bedrooms": 5,
    "occupancy_rate": 0.59,
    "monthly_revenue": 7611,
    "title": "Joglo Verdant 5BR — Canggu",
    "zone": "Canggu"
  },
  {
    "id": 78,
    "latitude": -8.663076,
    "longitude": 115.155734,
    "price_per_night": 410,
    "bedrooms": 2,
    "occupancy_rate": 0.62,
    "monthly_revenue": 7626,
    "title": "Casa Oasis 2BR — Berawa",
    "zone": "Berawa"
  },
  {
    "id": 79,
    "latitude": -8.671949,
    "longitude": 115.13638,
    "price_per_night": 255,
    "bedrooms": 2,
    "occupancy_rate": 0.59,
    "monthly_revenue": 4514,
    "title": "Omah Serenity 2BR — Batu Bolong",
    "zone": "Batu Bolong"
  },
  {
    "id": 80,
    "latitude": -8.656653,
    "longitude": 115.159325,
    "price_per_night": 240,
    "bedrooms": 4,
    "occupancy_rate": 0.74,
    "monthly_revenue": 5328,
    "title": "Casa Paradise 4BR — Berawa",
    "zone": "Berawa"
  },
  {
    "id": 81,
    "latitude": -8.651702,
    "longitude": 115.131986,
    "price_per_night": 420,
    "bedrooms": 2,
    "occupancy_rate": 0.75,
    "monthly_revenue": 9450,
    "title": "Puri Bloom 2BR — Canggu",
    "zone": "Canggu"
  },
  {
    "id": 82,
    "latitude": -8.65386,
    "longitude": 115.133466,
    "price_per_night": 365,
    "bedrooms": 5,
    "occupancy_rate": 0.59,
    "monthly_revenue": 6461,
    "title": "Casa Oasis 5BR — Canggu",
    "zone": "Canggu"
  },
  {
    "id": 83,
    "latitude": -8.660781,
    "longitude": 115.128899,
    "price_per_night": 490,
    "bedrooms": 5,
    "occupancy_rate": 0.77,
    "monthly_revenue": 11319,
    "title": "The Bloom 5BR — Canggu",
    "zone": "Canggu"
  },
  {
    "id": 84,
    "latitude": -8.662737,
    "longitude": 115.138287,
    "price_per_night": 345,
    "bedrooms": 1,
    "occupancy_rate": 0.6,
    "monthly_revenue": 6210,
    "title": "Rumah Saffron 1BR — Canggu",
    "zone": "Canggu"
  },
  {
    "id": 85,
    "latitude": -8.65754,
    "longitude": 115.131823,
    "price_per_night": 460,
    "bedrooms": 3,
    "occupancy_rate": 0.71,
    "monthly_revenue": 9798,
    "title": "Villa Breeze 3BR — Canggu",
    "zone": "Canggu"
  },
  {
    "id": 86,
    "latitude": -8.667148,
    "longitude": 115.139895,
    "price_per_night": 155,
    "bedrooms": 2,
    "occupancy_rate": 0.82,
    "monthly_revenue": 3813,
    "title": "Casa Tranquil 2BR — Batu Bolong",
    "zone": "Batu Bolong"
  },
  {
    "id": 87,
    "latitude": -8.664897,
    "longitude": 115.10027,
    "price_per_night": 165,
    "bedrooms": 2,
    "occupancy_rate": 0.74,
    "monthly_revenue": 3663,
    "title": "Villa Indigo 2BR — Pererenan",
    "zone": "Pererenan"
  },
  {
    "id": 88,
    "latitude": -8.664003,
    "longitude": 115.120638,
    "price_per_night": 155,
    "bedrooms": 2,
    "occupancy_rate": 0.61,
    "monthly_revenue": 2837,
    "title": "Joglo Coconut 2BR — Batu Bolong",
    "zone": "Batu Bolong"
  },
  {
    "id": 89,
    "latitude": -8.659188,
    "longitude": 115.150756,
    "price_per_night": 445,
    "bedrooms": 5,
    "occupancy_rate": 0.61,
    "monthly_revenue": 8144,
    "title": "Villa Lush 5BR — Berawa",
    "zone": "Berawa"
  },
  {
    "id": 90,
    "latitude": -8.664501,
    "longitude": 115.100943,
    "price_per_night": 220,
    "bedrooms": 4,
    "occupancy_rate": 0.76,
    "monthly_revenue": 5016,
    "title": "Casa Lotus 4BR — Pererenan",
    "zone": "Pererenan"
  },
  {
    "id": 91,
    "latitude": -8.653671,
    "longitude": 115.143206,
    "price_per_night": 340,
    "bedrooms": 2,
    "occupancy_rate": 0.73,
    "monthly_revenue": 7446,
    "title": "Villa Tranquil 2BR — Canggu",
    "zone": "Canggu"
  },
  {
    "id": 92,
    "latitude": -8.650399,
    "longitude": 115.153203,
    "price_per_night": 465,
    "bedrooms": 5,
    "occupancy_rate": 0.67,
    "monthly_revenue": 9347,
    "title": "Rumah Paradise 5BR — Canggu",
    "zone": "Canggu"
  },
  {
    "id": 93,
    "latitude": -8.660048,
    "longitude": 115.15325,
    "price_per_night": 245,
    "bedrooms": 3,
    "occupancy_rate": 0.65,
    "monthly_revenue": 4778,
    "title": "Omah Indigo 3BR — Berawa",
    "zone": "Berawa"
  },
  {
    "id": 94,
    "latitude": -8.665817,
    "longitude": 115.150705,
    "price_per_night": 245,
    "bedrooms": 4,
    "occupancy_rate": 0.68,
    "monthly_revenue": 4998,
    "title": "Omah Ricefield 4BR — Canggu",
    "zone": "Canggu"
  },
  {
    "id": 95,
    "latitude": -8.659271,
    "longitude": 115.156636,
    "price_per_night": 295,
    "bedrooms": 5,
    "occupancy_rate": 0.58,
    "monthly_revenue": 5133,
    "title": "Villa Paradise 5BR — Berawa",
    "zone": "Berawa"
  },
  {
    "id": 96,
    "latitude": -8.66338,
    "longitude": 115.173498,
    "price_per_night": 475,
    "bedrooms": 5,
    "occupancy_rate": 0.56,
    "monthly_revenue": 7980,
    "title": "Puri Oasis 5BR — Berawa",
    "zone": "Berawa"
  },
  {
    "id": 97,
    "latitude": -8.659796,
    "longitude": 115.141942,
    "price_per_night": 455,
    "bedrooms": 5,
    "occupancy_rate": 0.61,
    "monthly_revenue": 8327,
    "title": "Puri Lotus 5BR — Canggu",
    "zone": "Canggu"
  },
  {
    "id": 98,
    "latitude": -8.64718,
    "longitude": 115.116858,
    "price_per_night": 195,
    "bedrooms": 2,
    "occupancy_rate": 0.69,
    "monthly_revenue": 4036,
    "title": "Rumah Lush 2BR — Pererenan",
    "zone": "Pererenan"
  },
  {
    "id": 99,
    "latitude": -8.653814,
    "longitude": 115.147557,
    "price_per_night": 440,
    "bedrooms": 1,
    "occupancy_rate": 0.75,
    "monthly_revenue": 9900,
    "title": "Joglo Paradise 1BR — Canggu",
    "zone": "Canggu"
  },
  {
    "id": 100,
    "latitude": -8.669544,
    "longitude": 115.159064,
    "price_per_night": 295,
    "bedrooms": 3,
    "occupancy_rate": 0.64,
    "monthly_revenue": 5664,
    "title": "The Azure 3BR — Berawa",
    "zone": "Berawa"
  },
  {
    "id": 101,
    "latitude": -8.653945,
    "longitude": 115.163774,
    "price_per_night": 415,
    "bedrooms": 3,
    "occupancy_rate": 0.56,
    "monthly_revenue": 6972,
    "title": "Villa Frangipani 3BR — Berawa",
    "zone": "Berawa"
  },
  {
    "id": 102,
    "latitude": -8.660984,
    "longitude": 115.159308,
    "price_per_night": 295,
    "bedrooms": 4,
    "occupancy_rate": 0.71,
    "monthly_revenue": 6284,
    "title": "Villa Coconut 4BR — Berawa",
    "zone": "Berawa"
  },
  {
    "id": 103,
    "latitude": -8.65331,
    "longitude": 115.14868,
    "price_per_night": 325,
    "bedrooms": 4,
    "occupancy_rate": 0.63,
    "monthly_revenue": 6143,
    "title": "Joglo Saffron 4BR — Berawa",
    "zone": "Berawa"
  },
  {
    "id": 104,
    "latitude": -8.671709,
    "longitude": 115.131143,
    "price_per_night": 360,
    "bedrooms": 3,
    "occupancy_rate": 0.57,
    "monthly_revenue": 6156,
    "title": "Casa Harmony 3BR — Batu Bolong",
    "zone": "Batu Bolong"
  },
  {
    "id": 105,
    "latitude": -8.663911,
    "longitude": 115.147616,
    "price_per_night": 285,
    "bedrooms": 3,
    "occupancy_rate": 0.58,
    "monthly_revenue": 4959,
    "title": "The Tropical 3BR — Canggu",
    "zone": "Canggu"
  },
  {
    "id": 106,
    "latitude": -8.664729,
    "longitude": 115.155136,
    "price_per_night": 390,
    "bedrooms": 5,
    "occupancy_rate": 0.75,
    "monthly_revenue": 8775,
    "title": "Puri Paradise 5BR — Berawa",
    "zone": "Berawa"
  },
  {
    "id": 107,
    "latitude": -8.654155,
    "longitude": 115.131874,
    "price_per_night": 495,
    "bedrooms": 5,
    "occupancy_rate": 0.64,
    "monthly_revenue": 9504,
    "title": "Rumah Coconut 5BR — Canggu",
    "zone": "Canggu"
  },
  {
    "id": 108,
    "latitude": -8.658356,
    "longitude": 115.136301,
    "price_per_night": 410,
    "bedrooms": 5,
    "occupancy_rate": 0.7,
    "monthly_revenue": 8610,
    "title": "Puri Verdant 5BR — Canggu",
    "zone": "Canggu"
  },
  {
    "id": 109,
    "latitude": -8.658319,
    "longitude": 115.152316,
    "price_per_night": 500,
    "bedrooms": 3,
    "occupancy_rate": 0.59,
    "monthly_revenue": 8850,
    "title": "Rumah Tranquil 3BR — Canggu",
    "zone": "Canggu"
  },
  {
    "id": 110,
    "latitude": -8.659733,
    "longitude": 115.12356,
    "price_per_night": 170,
    "bedrooms": 1,
    "occupancy_rate": 0.63,
    "monthly_revenue": 3213,
    "title": "Casa Tranquil 1BR — Pererenan",
    "zone": "Pererenan"
  },
  {
    "id": 111,
    "latitude": -8.667573,
    "longitude": 115.13045,
    "price_per_night": 420,
    "bedrooms": 5,
    "occupancy_rate": 0.58,
    "monthly_revenue": 7308,
    "title": "Rumah Oasis 5BR — Batu Bolong",
    "zone": "Batu Bolong"
  },
  {
    "id": 112,
    "latitude": -8.658072,
    "longitude": 115.126094,
    "price_per_night": 230,
    "bedrooms": 2,
    "occupancy_rate": 0.62,
    "monthly_revenue": 4278,
    "title": "The Lotus 2BR — Batu Bolong",
    "zone": "Batu Bolong"
  },
  {
    "id": 113,
    "latitude": -8.669747,
    "longitude": 115.166829,
    "price_per_night": 275,
    "bedrooms": 3,
    "occupancy_rate": 0.69,
    "monthly_revenue": 5692,
    "title": "Casa Paradise 3BR — Berawa",
    "zone": "Berawa"
  },
  {
    "id": 114,
    "latitude": -8.658902,
    "longitude": 115.149534,
    "price_per_night": 370,
    "bedrooms": 5,
    "occupancy_rate": 0.61,
    "monthly_revenue": 6771,
    "title": "Villa Indigo 5BR — Canggu",
    "zone": "Canggu"
  },
  {
    "id": 115,
    "latitude": -8.667733,
    "longitude": 115.145632,
    "price_per_night": 470,
    "bedrooms": 4,
    "occupancy_rate": 0.67,
    "monthly_revenue": 9447,
    "title": "Rumah Jasmine 4BR — Canggu",
    "zone": "Canggu"
  },
  {
    "id": 116,
    "latitude": -8.660647,
    "longitude": 115.133,
    "price_per_night": 205,
    "bedrooms": 3,
    "occupancy_rate": 0.63,
    "monthly_revenue": 3875,
    "title": "Villa Lotus 3BR — Batu Bolong",
    "zone": "Batu Bolong"
  },
  {
    "id": 117,
    "latitude": -8.65289,
    "longitude": 115.162866,
    "price_per_night": 275,
    "bedrooms": 1,
    "occupancy_rate": 0.76,
    "monthly_revenue": 6270,
    "title": "Joglo Lotus 1BR — Berawa",
    "zone": "Berawa"
  },
  {
    "id": 118,
    "latitude": -8.662488,
    "longitude": 115.139968,
    "price_per_night": 295,
    "bedrooms": 2,
    "occupancy_rate": 0.59,
    "monthly_revenue": 5221,
    "title": "Joglo Jasmine 2BR — Batu Bolong",
    "zone": "Batu Bolong"
  },
  {
    "id": 119,
    "latitude": -8.656633,
    "longitude": 115.148081,
    "price_per_night": 260,
    "bedrooms": 4,
    "occupancy_rate": 0.77,
    "monthly_revenue": 6006,
    "title": "Casa Tranquil 4BR — Berawa",
    "zone": "Berawa"
  },
  {
    "id": 120,
    "latitude": -8.662214,
    "longitude": 115.165668,
    "price_per_night": 385,
    "bedrooms": 3,
    "occupancy_rate": 0.73,
    "monthly_revenue": 8432,
    "title": "Joglo Sunset 3BR — Berawa",
    "zone": "Berawa"
  },
  {
    "id": 121,
    "latitude": -8.65199,
    "longitude": 115.139215,
    "price_per_night": 320,
    "bedrooms": 4,
    "occupancy_rate": 0.6,
    "monthly_revenue": 5760,
    "title": "The Paradise 4BR — Canggu",
    "zone": "Canggu"
  },
  {
    "id": 122,
    "latitude": -8.656283,
    "longitude": 115.150029,
    "price_per_night": 315,
    "bedrooms": 2,
    "occupancy_rate": 0.7,
    "monthly_revenue": 6615,
    "title": "Rumah Tropical 2BR — Canggu",
    "zone": "Canggu"
  },
  {
    "id": 123,
    "latitude": -8.666218,
    "longitude": 115.134758,
    "price_per_night": 250,
    "bedrooms": 4,
    "occupancy_rate": 0.68,
    "monthly_revenue": 5100,
    "title": "Casa Jasmine 4BR — Batu Bolong",
    "zone": "Batu Bolong"
  },
  {
    "id": 124,
    "latitude": -8.652496,
    "longitude": 115.130102,
    "price_per_night": 465,
    "bedrooms": 3,
    "occupancy_rate": 0.75,
    "monthly_revenue": 10463,
    "title": "Rumah Bloom 3BR — Canggu",
    "zone": "Canggu"
  },
  {
    "id": 125,
    "latitude": -8.65672,
    "longitude": 115.159679,
    "price_per_night": 445,
    "bedrooms": 3,
    "occupancy_rate": 0.65,
    "monthly_revenue": 8678,
    "title": "Puri Serenity 3BR — Berawa",
    "zone": "Berawa"
  },
  {
    "id": 126,
    "latitude": -8.641152,
    "longitude": 115.117622,
    "price_per_night": 185,
    "bedrooms": 1,
    "occupancy_rate": 0.67,
    "monthly_revenue": 3719,
    "title": "Casa Frangipani 1BR — Pererenan",
    "zone": "Pererenan"
  },
  {
    "id": 127,
    "latitude": -8.667679,
    "longitude": 115.118439,
    "price_per_night": 220,
    "bedrooms": 3,
    "occupancy_rate": 0.66,
    "monthly_revenue": 4356,
    "title": "The Azure 3BR — Batu Bolong",
    "zone": "Batu Bolong"
  },
  {
    "id": 128,
    "latitude": -8.664637,
    "longitude": 115.14968,
    "price_per_night": 290,
    "bedrooms": 5,
    "occupancy_rate": 0.59,
    "monthly_revenue": 5133,
    "title": "Puri Saffron 5BR — Canggu",
    "zone": "Canggu"
  },
  {
    "id": 129,
    "latitude": -8.663534,
    "longitude": 115.125559,
    "price_per_night": 325,
    "bedrooms": 5,
    "occupancy_rate": 0.66,
    "monthly_revenue": 6435,
    "title": "The Harmony 5BR — Batu Bolong",
    "zone": "Batu Bolong"
  },
  {
    "id": 130,
    "latitude": -8.669114,
    "longitude": 115.139969,
    "price_per_night": 305,
    "bedrooms": 4,
    "occupancy_rate": 0.74,
    "monthly_revenue": 6771,
    "title": "Villa Tropical 4BR — Batu Bolong",
    "zone": "Batu Bolong"
  },
  {
    "id": 131,
    "latitude": -8.67191,
    "longitude": 115.16657,
    "price_per_night": 340,
    "bedrooms": 3,
    "occupancy_rate": 0.69,
    "monthly_revenue": 7038,
    "title": "Rumah Coconut 3BR — Berawa",
    "zone": "Berawa"
  },
  {
    "id": 132,
    "latitude": -8.667735,
    "longitude": 115.148904,
    "price_per_night": 350,
    "bedrooms": 3,
    "occupancy_rate": 0.61,
    "monthly_revenue": 6405,
    "title": "Joglo Paradise 3BR — Canggu",
    "zone": "Canggu"
  },
  {
    "id": 133,
    "latitude": -8.653893,
    "longitude": 115.146156,
    "price_per_night": 330,
    "bedrooms": 4,
    "occupancy_rate": 0.67,
    "monthly_revenue": 6633,
    "title": "Casa Lotus 4BR — Canggu",
    "zone": "Canggu"
  },
  {
    "id": 134,
    "latitude": -8.663886,
    "longitude": 115.122558,
    "price_per_night": 260,
    "bedrooms": 4,
    "occupancy_rate": 0.8,
    "monthly_revenue": 6240,
    "title": "Villa Azure 4BR — Batu Bolong",
    "zone": "Batu Bolong"
  },
  {
    "id": 135,
    "latitude": -8.6647,
    "longitude": 115.141161,
    "price_per_night": 395,
    "bedrooms": 5,
    "occupancy_rate": 0.62,
    "monthly_revenue": 7347,
    "title": "Rumah Bloom 5BR — Canggu",
    "zone": "Canggu"
  },
  {
    "id": 136,
    "latitude": -8.658791,
    "longitude": 115.123672,
    "price_per_night": 240,
    "bedrooms": 1,
    "occupancy_rate": 0.76,
    "monthly_revenue": 5472,
    "title": "Puri Frangipani 1BR — Batu Bolong",
    "zone": "Batu Bolong"
  },
  {
    "id": 137,
    "latitude": -8.664464,
    "longitude": 115.138664,
    "price_per_night": 325,
    "bedrooms": 5,
    "occupancy_rate": 0.63,
    "monthly_revenue": 6143,
    "title": "The Paradise 5BR — Batu Bolong",
    "zone": "Batu Bolong"
  },
  {
    "id": 138,
    "latitude": -8.661059,
    "longitude": 115.131543,
    "price_per_night": 310,
    "bedrooms": 4,
    "occupancy_rate": 0.63,
    "monthly_revenue": 5859,
    "title": "Omah Bamboo 4BR — Canggu",
    "zone": "Canggu"
  },
  {
    "id": 139,
    "latitude": -8.667283,
    "longitude": 115.139005,
    "price_per_night": 285,
    "bedrooms": 2,
    "occupancy_rate": 0.61,
    "monthly_revenue": 5216,
    "title": "Villa Bloom 2BR — Batu Bolong",
    "zone": "Batu Bolong"
  },
  {
    "id": 140,
    "latitude": -8.658568,
    "longitude": 115.157178,
    "price_per_night": 160,
    "bedrooms": 1,
    "occupancy_rate": 0.62,
    "monthly_revenue": 2976,
    "title": "Omah Bamboo 1BR — Berawa",
    "zone": "Berawa"
  },
  {
    "id": 141,
    "latitude": -8.666168,
    "longitude": 115.127296,
    "price_per_night": 285,
    "bedrooms": 1,
    "occupancy_rate": 0.72,
    "monthly_revenue": 6156,
    "title": "Puri Lush 1BR — Batu Bolong",
    "zone": "Batu Bolong"
  },
  {
    "id": 142,
    "latitude": -8.662972,
    "longitude": 115.165195,
    "price_per_night": 320,
    "bedrooms": 1,
    "occupancy_rate": 0.75,
    "monthly_revenue": 7200,
    "title": "Casa Breeze 1BR — Berawa",
    "zone": "Berawa"
  },
  {
    "id": 143,
    "latitude": -8.659729,
    "longitude": 115.130983,
    "price_per_night": 210,
    "bedrooms": 2,
    "occupancy_rate": 0.59,
    "monthly_revenue": 3717,
    "title": "Puri Sunset 2BR — Batu Bolong",
    "zone": "Batu Bolong"
  },
  {
    "id": 144,
    "latitude": -8.652435,
    "longitude": 115.148642,
    "price_per_night": 420,
    "bedrooms": 4,
    "occupancy_rate": 0.76,
    "monthly_revenue": 9576,
    "title": "The Lotus 4BR — Berawa",
    "zone": "Berawa"
  },
  {
    "id": 145,
    "latitude": -8.659393,
    "longitude": 115.134318,
    "price_per_night": 385,
    "bedrooms": 5,
    "occupancy_rate": 0.61,
    "monthly_revenue": 7046,
    "title": "Rumah Ricefield 5BR — Canggu",
    "zone": "Canggu"
  },
  {
    "id": 146,
    "latitude": -8.654499,
    "longitude": 115.126852,
    "price_per_night": 235,
    "bedrooms": 5,
    "occupancy_rate": 0.78,
    "monthly_revenue": 5499,
    "title": "Puri Harmony 5BR — Pererenan",
    "zone": "Pererenan"
  },
  {
    "id": 147,
    "latitude": -8.663174,
    "longitude": 115.13009,
    "price_per_night": 375,
    "bedrooms": 3,
    "occupancy_rate": 0.78,
    "monthly_revenue": 8775,
    "title": "Villa Lotus 3BR — Batu Bolong",
    "zone": "Batu Bolong"
  },
  {
    "id": 148,
    "latitude": -8.661481,
    "longitude": 115.161591,
    "price_per_night": 190,
    "bedrooms": 2,
    "occupancy_rate": 0.77,
    "monthly_revenue": 4389,
    "title": "Rumah Bloom 2BR — Berawa",
    "zone": "Berawa"
  },
  {
    "id": 149,
    "latitude": -8.665453,
    "longitude": 115.167523,
    "price_per_night": 195,
    "bedrooms": 1,
    "occupancy_rate": 0.79,
    "monthly_revenue": 4622,
    "title": "Puri Verdant 1BR — Berawa",
    "zone": "Berawa"
  },
  {
    "id": 150,
    "latitude": -8.65658,
    "longitude": 115.168641,
    "price_per_night": 225,
    "bedrooms": 2,
    "occupancy_rate": 0.65,
    "monthly_revenue": 4388,
    "title": "Joglo Paradise 2BR — Berawa",
    "zone": "Berawa"
  }
]